stat_id,num_stat_id,stat_name,network,state,city,start_date,end_date,lat,lon,elevation,landuse
AT0ENK1,200001,Enzenkirchen im Sauwald,AirBase,AT,Enzenkirchen im Sauwald,01/01/2005,12/31/2006,48.3933,13.6711,525,Rural
AT0ILL1,208111,Illmitz,AirBase,AT,Illmitz,01/01/2005,12/31/2006,47.7667,16.7664,117,Rural
AT0PIL1,205811,Pillersdorf bei Retz,AirBase,AT,Pillersdorf bei Retz,01/01/2005,12/31/2006,48.7167,15.9422,315,Rural
AT0SIG1,208861,St. Sigmund im Sellrain,AirBase,AT,St. Sigmund im Sellrain,01/01/2005,12/31/2006,47.1933,11.0997,1666,Rural
AT0SON1,208431,Sonnblick,AirBase,AT,Sonnblick,01/01/2005,12/31/2006,47.0500,12.9583,3106,Rural
AT0VOR1,201471,Vorhegg bei Kotschach-Mauthen,AirBase,AT,Vorhegg bei Kotschach-Mauthen,01/01/2005,12/31/2006,46.6767,12.9719,1020,Rural
AT0ZOE2,205442,Zobelboden - Reichraminger Hintergebirge,AirBase,AT,Zobelboden - Reichraminger Hintergebirge,01/01/2005,12/31/2006,47.8433,14.4414,899,Rural
AT10002,210002,Oberwart - Brunnenfeld,AirBase,AT,Oberwart - Brunnenfeld,01/01/2005,12/31/2006,47.3000,16.1931,330,Rural
AT2F101,225101,Soboth Forsthaus,AirBase,AT,Soboth Forsthaus,01/01/2005,12/31/2006,46.6767,15.0461,1080,Rural
AT2SP10,228510,Obervellach Schulzentrum,AirBase,AT,Obervellach Schulzentrum,01/01/2005,12/31/2006,46.9333,13.1956,686,Rural
AT2SP18,228518,Spittal a.d.Drau Oktoberstrasse,AirBase,AT,SPITTAL AN DER DRAU,01/01/2005,12/31/2006,46.8000,13.4956,560,Urban
AT2VK26,221026,Bleiburg Koschatstrasse,AirBase,AT,BLEIBURG,01/01/2005,12/31/2006,46.5833,14.7950,480,Rural
AT2WO35,222435,St. Georgen im Lavanttal - Herzogberg,AirBase,AT,St. Georgen im Lavanttal - Herzogberg,01/01/2005,12/31/2006,46.7100,14.8920,540,Rural
AT30065,230065,Purkersdorf,AirBase,AT,PURKERSDORF,01/01/2005,12/31/2006,48.2100,16.1756,248,Suburban
AT30101,230101,Amstetten,AirBase,AT,AMSTETTEN,01/01/2005,12/31/2006,48.1167,14.8792,270,Urban
AT30103,230103,Kollmitzberg,AirBase,AT,Kollmitzberg,01/01/2005,12/31/2006,48.1767,14.8667,465,Rural
AT30201,230201,Bad Voslau - Gainfarn,AirBase,AT,BAD VoSLAU,01/01/2005,12/31/2006,47.9600,16.2070,286,Suburban
AT30202,230202,Forsthof am Schopfl,AirBase,AT,Forsthof am Schopfl,01/01/2005,12/31/2006,48.1100,15.9194,581,Rural
AT30301,230301,Hainburg,AirBase,AT,HAINBURG,01/01/2005,12/31/2006,48.1433,16.9611,165,Suburban
AT30302,230302,Stixneusiedl,AirBase,AT,Stixneusiedl,01/01/2005,12/31/2006,48.0500,16.6767,210,Rural
AT30401,230401,Ganserndorf,AirBase,AT,GaNSERNDORF,01/01/2005,12/31/2006,48.3333,16.7306,161,Suburban
AT30403,230403,Wolkersdorf,AirBase,AT,WOLKERSDORF,01/01/2005,12/31/2006,48.3933,16.5222,190,Rural
AT30407,230407,Grobenzersdorf Glinzendorf,AirBase,AT,GROSSENZERSDORF,01/01/2005,12/31/2006,48.2333,16.6369,150,Rural
AT30502,230502,Heidenreichstein Thaures,AirBase,AT,Heidenreichstein Thaures,01/01/2005,12/31/2006,48.8767,15.0467,560,Rural
AT30601,230601,Klosterneuburg Wiesentgasse,AirBase,AT,KLOSTERNEUBURG,01/01/2005,12/31/2006,48.3000,16.3047,200,Urban
AT30603,230603,Himberg,AirBase,AT,HIMBERG,01/01/2005,12/31/2006,48.0833,16.4333,172,Rural
AT30801,230801,Irnfritz,AirBase,AT,Irnfritz,01/01/2005,12/31/2006,48.7267,15.5003,556,Rural
AT30902,230902,Stockerau West,AirBase,AT,STOCKERAU,01/01/2005,12/31/2006,48.3933,16.2145,186,Suburban
AT31204,231204,Pochlarn,AirBase,AT,PoCHLARN,01/01/2005,12/31/2006,48.2100,15.2072,216,Suburban
AT31301,231301,Mistelbach,AirBase,AT,MISTELBACH,01/01/2005,12/31/2006,48.5767,16.5806,250,Suburban
AT31401,231401,Modling,AirBase,AT,MoDLING,01/01/2005,12/31/2006,48.0833,16.3022,210,Suburban
AT31502,231502,Payerbach,AirBase,AT,Payerbach,01/01/2005,12/31/2006,47.6667,15.8547,890,Rural
AT31701,231701,Dunkelsteinerwald,AirBase,AT,Dunkelsteinerwald,01/01/2005,12/31/2006,48.3667,15.5467,305,Rural
AT31703,231703,Traismauer,AirBase,AT,TRAISMAIER,01/01/2005,12/31/2006,48.3500,15.7470,190,Rural
AT31904,231904,Streithofen im Tullnerfeld,AirBase,AT,Streithofen im Tullnerfeld,01/01/2005,12/31/2006,48.2767,15.9361,220,Rural
AT31906,231906,Tulbinger Kogel,AirBase,AT,Tulbinger Kogel,01/01/2005,12/31/2006,48.2867,16.1486,495,Rural
AT32401,232401,Wiener Neustadt - Neuklosterwiese,AirBase,AT,WIENER NEUSTADT,01/01/2005,12/31/2006,47.8100,16.2550,265,Suburban
AT32501,232501,Krems,AirBase,AT,KREMS,01/01/2005,12/31/2006,48.4100,15.6203,190,Urban
AT32603,232603,Waidhofen an der Ybbs,AirBase,AT,WAIDHOFEN AN DER YBBS,01/01/2005,12/31/2006,47.9600,14.7872,460,Suburban
AT4S108,248108,Grunbach bei Freistadt,AirBase,AT,Grunbach bei Freistadt,01/01/2005,12/31/2006,48.5267,14.5747,918,Rural
AT4S125,248125,Bad Ischl,AirBase,AT,BAD ISCHL,01/01/2005,12/31/2006,47.7167,13.6328,460,Suburban
AT4S156,248156,Braunau Zentrum,AirBase,AT,BRAUNAU,01/01/2005,12/31/2006,48.2600,13.0400,350,Urban
AT4S404,248404,Traun,AirBase,AT,LINZ,01/01/2005,12/31/2006,48.2267,14.2389,274,Suburban
AT4S406,248406,Wels Linzerstrabe,AirBase,AT,WELS,01/01/2005,12/31/2006,48.1700,14.0356,316,Urban
AT4S407,248407,Vocklabruck,AirBase,AT,VoCKLABRUCK,01/01/2005,12/31/2006,48.0000,13.6681,420,Suburban
AT4S409,248409,Steyr,AirBase,AT,STEYR,01/01/2005,12/31/2006,48.0500,14.4406,307,Suburban
AT4S412,248412,Linz Kleinmunchen,AirBase,AT,LINZ,01/01/2005,12/31/2006,48.2500,14.3108,258,Suburban
AT4S414,248414,Linz ORF-Zentrum,AirBase,AT,LINZ,01/01/2005,12/31/2006,48.2933,14.3014,263,Urban
AT4S416,248416,Linz Neue Welt,AirBase,AT,LINZ,01/01/2005,12/31/2006,48.2767,14.3147,265,Urban
AT4S420,248420,Schoneben,AirBase,AT,Schoneben,01/01/2005,12/31/2006,48.7100,13.9522,920,Rural
AT51200,251200,Salzburg Lehen,AirBase,AT,SALZBURG,01/01/2005,12/31/2006,47.8167,13.0300,455,Urban
AT53055,253055,Haunsberg,AirBase,AT,Haunsberg,01/01/2005,12/31/2006,47.9767,13.0158,730,Rural
AT55032,255032,Tamsweg - Untere Postgasse,AirBase,AT,TAMSWEG,01/01/2005,12/31/2006,47.1267,13.8070,1025,Suburban
AT60106,260106,Koflach,AirBase,AT,KoFLACH,01/01/2005,12/31/2006,47.0600,15.0792,445,Urban
AT60107,260107,Voitsberg Muhlgasse,AirBase,AT,VOITSBERG,01/01/2005,12/31/2006,47.0433,15.1500,390,Suburban
AT60114,260114,Zeltweg,AirBase,AT,ZELTWEG,01/01/2005,12/31/2006,47.1933,14.7533,675,Suburban
AT60118,260118,Judenburg,AirBase,AT,JUDENBURG,01/01/2005,12/31/2006,47.1767,14.6775,715,Urban
AT60119,260119,Knittelfeld Parkstrabe,AirBase,AT,KNITTELFELD,01/01/2005,12/31/2006,47.2100,14.8245,635,Urban
AT60127,260127,Pols Ost,AirBase,AT,Pols Ost,01/01/2005,12/31/2006,47.2167,14.6017,795,Rural
AT60137,260137,Hochgossnitz,AirBase,AT,Hochgossnitz,01/01/2005,12/31/2006,47.0600,15.0167,900,Rural
AT60141,260141,Leoben Gob,AirBase,AT,LEOBEN,01/01/2005,12/31/2006,47.3600,15.0989,554,Urban
AT60143,260143,Leoben Zentrum,AirBase,AT,LEOBEN,01/01/2005,12/31/2006,47.3867,15.0900,540,Urban
AT60145,260145,Kapfenberg,AirBase,AT,KAPFENBERG,01/01/2005,12/31/2006,47.4433,15.2903,517,Urban
AT60150,260150,Rennfeld,AirBase,AT,Rennfeld,01/01/2005,12/31/2006,47.4100,15.3608,1620,Rural
AT60151,260151,Bockberg,AirBase,AT,Bockberg,01/01/2005,12/31/2006,46.8767,15.4950,449,Rural
AT60156,260156,Masenberg,AirBase,AT,Masenberg,01/01/2005,12/31/2006,47.3433,15.8820,1137,Rural
AT60157,260157,Grundlsee,AirBase,AT,Grundlsee,01/01/2005,12/31/2006,47.6167,13.7967,980,Rural
AT60170,260170,Graz Sud Tiergartenweg,AirBase,AT,GRAZ,01/01/2005,12/31/2006,47.0433,15.4342,345,Urban
AT60182,260182,Liezen,AirBase,AT,LIEZEN,01/01/2005,12/31/2006,47.5667,14.2436,665,Rural
AT60185,260185,Kloch bei Bad Radkersburg,AirBase,AT,Kloch bei Bad Radkersburg,01/01/2005,12/31/2006,46.7500,15.9567,300,Rural
AT60188,260188,Hartberg,AirBase,AT,HARTBERG,01/01/2005,12/31/2006,47.2767,15.9750,330,Suburban
AT60190,260190,Arnfels - Remschnigg,AirBase,AT,Arnfels - Remschnigg,01/01/2005,12/31/2006,46.6500,15.3678,785,Rural
AT60194,260194,Murzzuschlag Roseggerpark,AirBase,AT,MuRZZUSCHLAG,01/01/2005,12/31/2006,47.6000,15.6731,679,Suburban
AT60195,260195,Deutschlandsberg Rathausgasse,AirBase,AT,DEUTSCHLANDSBERG,01/01/2005,12/31/2006,46.8100,15.2128,368,Suburban
AT72123,272123,Innsbruck Nordkette,AirBase,AT,Innsbruck Nordkette,01/01/2005,12/31/2006,47.3100,11.3781,1910,Rural
AT72538,272538,Kramsach Angerberg,AirBase,AT,Kramsach Angerberg,01/01/2005,12/31/2006,47.4600,11.9106,600,Rural
AT80503,280503,Sulzberg im Bregenzerwald,AirBase,AT,Sulzberg im Bregenzerwald,01/01/2005,12/31/2006,47.5267,9.9267,1020,Rural
AT80706,280706,Lustenau Wiesenrain,AirBase,AT,LUSTENAU,01/01/2005,12/31/2006,47.4100,9.6528,410,Urban
AT80807,280807,Dornbirn Stadtstrabe,AirBase,AT,DORNBIRN,01/01/2005,12/31/2006,47.4100,9.7442,440,Urban
AT900ZA,290050,Wien Hohe Warte - Zentralanstalt fur Meteorologie und Geodyn,AirBase,AT,WIEN,01/01/2005,12/31/2006,48.2533,16.3578,207,Suburban
AT90LOB,290141,Wien Lobau - Grundwasserwerk,AirBase,AT,WIEN,01/01/2005,12/31/2006,48.1600,16.5267,150,Suburban
AT9JAEG,299046,Wien Hermannskogel,AirBase,AT,WIEN,01/01/2005,12/31/2006,48.2667,16.2989,520,Suburban
AT9SCHA,298270,Wien Schafbergbad,AirBase,AT,WIEN,01/01/2005,12/31/2006,48.2333,16.3031,320,Suburban
AT9STAD,298903,Wien Stadlau,AirBase,AT,WIEN,01/01/2005,12/31/2006,48.2267,16.4606,155,Urban
AT9STEF,298945,Wien Stephansplatz,AirBase,AT,WIEN,01/01/2005,12/31/2006,48.2100,16.3739,173,Urban
BA0001G,5000016,IVAN SEDLO,AirBase,BA,IVAN SEDLO,01/01/2005,12/31/2006,43.7767,18.0203,970,Rural
BA0029A,5000290,SARAJEVO-BJ-AUTOMAT,AirBase,BA,SARAJEVO,01/01/2005,12/31/2006,43.8667,18.4231,630,Urban
BELHB23,317123,HOBOKEN,AirBase,BE,HOBOKEN,01/01/2005,12/31/2006,51.1667,4.3422,13,Suburban
BELLD02,311302,LAAKDAL,AirBase,BE,LAAKDAL,01/01/2005,12/31/2006,51.1267,5.0231,22,Suburban
BELMN01,312301,MENEN,AirBase,BE,MENEN,01/01/2005,12/31/2006,50.7933,3.1108,10,Suburban
BELSZ02,318502,STEENOKKERZ,AirBase,BE,STEENOKKERZEEL,01/01/2005,12/31/2006,50.9100,4.5133,15,Suburban
BETB006,391006,PARL.EUROPE,AirBase,BE,BRUSSELS,01/01/2005,12/31/2006,50.8433,4.3756,80,Urban
BETB011,391011,BERCHEM S.A,AirBase,BE,BRUXELLES/BRUSSEL,01/01/2005,12/31/2006,50.8600,4.2895,30,Suburban
BETH201,397201,LIEGE,AirBase,BE,LIEGE,01/01/2005,12/31/2006,50.6267,5.5461,160,Suburban
BETMEU1,392401,MEUDON,AirBase,BE,BRUSSELS,01/01/2005,12/31/2006,50.8933,4.3939,50,Suburban
BETN012,393012,MOERKERKE,AirBase,BE,MOERKERKE,01/01/2005,12/31/2006,51.2600,3.3633,3,Rural
BETN015,393015,SCHILDE,AirBase,BE,SCHILDE,01/01/2005,12/31/2006,51.2600,4.5931,10,Rural
BETN016,393016,DESSEL,AirBase,BE,DESSEL,01/01/2005,12/31/2006,51.2333,5.1642,30,Rural
BETN029,393029,HOUTEM,AirBase,BE,VEURNE,01/01/2005,12/31/2006,51.0167,2.5833,2,Rural
BETN035,393035,AARSCHOT,AirBase,BE,AARSCHOT,01/01/2005,12/31/2006,50.9767,4.8389,55,Suburban
BETN040,393040,ST.P.LEEUWG,AirBase,BE,SINT PIETERS LEEUW,01/01/2005,12/31/2006,50.7667,4.2256,20,Rural
BETN045,393045,HASSELT,AirBase,BE,HASSELT,01/01/2005,12/31/2006,50.9433,5.3695,41,Suburban
BETN046,393046,GELLIK,AirBase,BE,LANAKEN,01/01/2005,12/31/2006,50.8867,5.6197,70,Rural
BETN051,393051,IDEGEM,AirBase,BE,GERAARDSBERGEN,01/01/2005,12/31/2006,50.8033,3.9311,15,Rural
BETN052,393052,ZWEVEGEM,AirBase,BE,ZWEVEGEM,01/01/2005,12/31/2006,50.8200,3.3239,27,Suburban
BETN054,393054,WALSHOUTEM,AirBase,BE,LANDEN,01/01/2005,12/31/2006,50.7100,5.1014,135,Rural
BETN063,393063,CORROY L.G.,AirBase,BE,CORROY LE GRAND,01/01/2005,12/31/2006,50.6600,4.6670,145,Rural
BETN066,393066,EUPEN,AirBase,BE,EUPEN,01/01/2005,12/31/2006,50.6267,6.0011,295,Rural
BETN070,393070,MONS,AirBase,BE,MONS,01/01/2005,12/31/2006,50.4700,3.9375,30,Suburban
BETN073,393073,VEZIN,AirBase,BE,ANDENNE,01/01/2005,12/31/2006,50.5000,4.9872,160,Rural
BETN085,393085,VIELSALM,AirBase,BE,VIELSALM,01/01/2005,12/31/2006,50.3000,6.0003,490,Rural
BETN093,393093,SINSIN,AirBase,BE,SOMME-LEUZE,01/01/2005,12/31/2006,50.2767,5.2339,265,Rural
BETN100,393100,DOURBES,AirBase,BE,VIROINVAL,01/01/2005,12/31/2006,50.0933,4.5933,225,Rural
BETN132,393132,HABAY-LA-N.,AirBase,BE,HABAY LA NEUVE,01/01/2005,12/31/2006,49.7167,5.6289,375,Rural
BETR012,397012,UCCLE,AirBase,BE,BRUSSELS,01/01/2005,12/31/2006,50.7933,4.3597,100,Suburban
BETR201,397202,LIEGE,AirBase,BE,LIEGE,01/01/2005,12/31/2006,50.6267,5.5745,65,Urban
BETR222,397222,SERAING,AirBase,BE,LIEGE,01/01/2005,12/31/2006,50.6100,5.5706,65,Suburban
BETR502,397502,LODELINSART,AirBase,BE,CHARLEROI,01/01/2005,12/31/2006,50.4267,4.4572,135,Suburban
BETR701,397701,GENT,AirBase,BE,GENT,01/01/2005,12/31/2006,51.0600,3.7306,5,Urban
BETR710,397710,DESTELBERGE,AirBase,BE,DESTELBERGEN,01/01/2005,12/31/2006,51.0600,3.7761,6,Suburban
BETR811,397811,SCHOTEN,AirBase,BE,ANTWERPEN,01/01/2005,12/31/2006,51.2500,4.4914,8,Suburban
BETR821,397821,BEVEREN,AirBase,BE,BEVEREN-WAAS,01/01/2005,12/31/2006,51.2200,4.2522,11,Suburban
BG0013A,400130,Izvorite-Devnia,AirBase,BG,Devnia,01/01/2005,12/31/2006,43.2167,27.5611,100,Suburban
BG0040A,400400,AMS Nadejda-Sofia,AirBase,BG,Sofia,01/01/2005,12/31/2006,42.7367,23.3003,500,Suburban
BG0041A,400410,AMS Rakovsky-Dimitrovgrad,AirBase,BG,Dimitrovgad,01/01/2005,12/31/2006,42.0500,25.6000,103,Urban
BG0043A,400430,AMS Rail. Station-Vratza,AirBase,BG,Vratza,01/01/2005,12/31/2006,43.2100,23.5586,350,Urban
BG0044A,400440,D.Ezerovo,AirBase,BG,Burgas,01/01/2005,12/31/2006,42.5167,27.3669,17,Suburban
BG0045A,400450,AMS Vazragdane-Ruse,AirBase,BG,Ruse,01/01/2005,12/31/2006,43.8600,25.9770,50,Suburban
BG0050A,400500,Krasno Selo,AirBase,BG,Sofia,01/01/2005,12/31/2006,42.6767,23.2828,590,Suburban
BG0051A,400510,Evmolpia-AMS,AirBase,BG,Plovdiv,01/01/2005,12/31/2006,42.1433,24.7783,166,Urban
BG0053R,400537,Rojen peak,AirBase,BG,Rojen peak,01/01/2005,12/31/2006,41.6933,24.7386,1750,Rural
BG0056A,400560,AIS Meden rudnik,AirBase,BG,Burgas,01/01/2005,12/31/2006,42.4667,27.3897,28,Suburban
CH0001A,2400010,Wallisellen-Dietlikonerstrasse,AirBase,CH,ZuRICH,01/01/2005,12/31/2006,47.4167,8.6058,470,Suburban
CH0002R,2400027,Payerne,AirBase,CH,Payerne,01/01/2005,12/31/2006,46.8100,6.9445,489,Rural
CH0003R,2400037,Tanikon,AirBase,CH,Tanikon,01/01/2005,12/31/2006,47.4767,8.9047,539,Rural
CH0004R,2400047,Chaumont,AirBase,CH,Chaumont,01/01/2005,12/31/2006,47.0533,6.9792,1137,Rural
CH0005A,2400050,Dubendorf-EMPA,AirBase,CH,ZuRICH,01/01/2005,12/31/2006,47.4000,8.6134,433,Suburban
CH0005R,2400057,Rigi-Seebodenalp,AirBase,CH,Rigi-Seebodenalp,01/01/2005,12/31/2006,47.0667,8.4633,1031,Rural
CH0008A,2400080,Basel-Binningen,AirBase,CH,BASEL,01/01/2005,12/31/2006,47.5433,7.5833,317,Suburban
CH0010A,2400100,Zurich-Kaserne,AirBase,CH,ZuRICH,01/01/2005,12/31/2006,47.3767,8.5304,410,Urban
CH0011A,2400110,Lugano-Universita,AirBase,CH,LUGANO,01/01/2005,12/31/2006,46.0100,8.9572,281,Urban
CH0014A,2400140,Winterthur-Obertor,AirBase,CH,WINTERTHUR,01/01/2005,12/31/2006,47.5033,8.7320,448,Urban
CH0017A,2400170,Basel-St-Johann,AirBase,CH,BASEL,01/01/2005,12/31/2006,47.5700,7.5820,260,Urban
CH0019A,2400190,St-Gallen-Stuelegg,AirBase,CH,St-Gallen-Stuelegg,01/01/2005,12/31/2006,47.4100,9.3943,920,Rural
CH0022A,2400220,Ebikon-Sedel,AirBase,CH,LUZERN,01/01/2005,12/31/2006,47.0667,8.3006,484,Suburban
CH0024A,2400240,Saxon,AirBase,CH,Saxon,01/01/2005,12/31/2006,46.1433,7.1483,460,Rural
CH0033A,2400330,Magadino-Cadenazzo,AirBase,CH,Magadino-Cadenazzo,01/01/2005,12/31/2006,46.1600,8.9339,204,Rural
CH0037A,2400370,Epalinges,AirBase,CH,LAUSANNE,01/01/2005,12/31/2006,46.5433,6.6629,710,Suburban
CH0040A,2400400,Luzern-Museggstrasse,AirBase,CH,LUZERN,01/01/2005,12/31/2006,47.0600,8.3098,460,Urban
CH0041A,2400410,Ittigen,AirBase,CH,BERN,01/01/2005,12/31/2006,46.9767,7.4786,550,Suburban
CH0045A,2400450,Anieres-Debarcadere,AirBase,CH,Anieres-Debarcadere,01/01/2005,12/31/2006,46.2767,6.2213,375,Rural
CH0046A,2400460,Thonex-Foron,AirBase,CH,GENEVE,01/01/2005,12/31/2006,46.1933,6.2113,422,Suburban
CH0049A,2400490,Geneve-Ste-Clotilde,AirBase,CH,GENEVE,01/01/2005,12/31/2006,46.2033,6.1322,374,Urban
CH0050A,2400500,Meyrin-Vaudagne,AirBase,CH,GENEVE,01/01/2005,12/31/2006,46.2267,6.0742,439,Suburban
CY0002R,5500027,Emep - Ayia Marina,AirBase,CY,AYIA MARINA,01/01/2005,12/31/2006,35.0433,33.0581,532,Rural
CZ0AKOB,4600041,Pha-Kobylisy,AirBase,CZ,PRAHA,01/01/2005,12/31/2006,50.1267,14.4672,269,Suburban
CZ0ALIB,4600181,Pha-Libus,AirBase,CZ,PRAHA,01/01/2005,12/31/2006,50.0100,14.4489,301,Suburban
CZ0ASUC,4600802,Pha-Suchdol,AirBase,CZ,PRAHA,01/01/2005,12/31/2006,50.1267,14.3847,277,Suburban
CZ0BBNY,4601134,Brno-Turany,AirBase,CZ,BRNO,01/01/2005,12/31/2006,49.1533,16.6961,241,Suburban
CZ0BKUC,4601002,Kucharovice,AirBase,CZ,Kucharovice,01/01/2005,12/31/2006,48.8767,16.0859,334,Rural
CZ0BMIS,4601288,Mikulov-Sedlec,AirBase,CZ,Mikulov-Sedlec,01/01/2005,12/31/2006,48.7933,16.7250,245,Rural
CZ0CCBD,4602213,Ceske Budejovice,AirBase,CZ,CESKE BUDEJOVICE,01/01/2005,12/31/2006,48.9833,14.4656,383,Urban
CZ0CCHU,4602270,Churanov,AirBase,CZ,Churanov,01/01/2005,12/31/2006,49.0667,13.6147,1118,Rural
CZ0CHVO,4602714,Hojna Voda,AirBase,CZ,Hojna Voda,01/01/2005,12/31/2006,48.7267,14.7242,818,Rural
CZ0EPAO,4604504,Pardubice-Rosice,AirBase,CZ,PARDUBICE,01/01/2005,12/31/2006,50.0433,15.7395,217,Suburban
CZ0EPAU,4604500,Pardubice Dukla,AirBase,CZ,PARDUBICE,01/01/2005,12/31/2006,50.0267,15.7622,239,Urban
CZ0ESVR,4604817,Svratouch,AirBase,CZ,Svratouch,01/01/2005,12/31/2006,49.7333,16.0361,735,Rural
CZ0HKRY,4607074,Krkonose-Rychory,AirBase,CZ,Krkonose-Rychory,01/01/2005,12/31/2006,50.6600,15.8514,1001,Rural
CZ0HSER,4607847,Serlich,AirBase,CZ,Serlich,01/01/2005,12/31/2006,50.3267,16.3828,1011,Rural
CZ0HTRM,4607972,Trutnov-Mladeznicka,AirBase,CZ,Trutnov-Mladeznicka,01/01/2005,12/31/2006,50.5867,15.8939,432,Urban
CZ0JJIH,4609987,Jihlava,AirBase,CZ,JIHLAVA,01/01/2005,12/31/2006,49.4000,15.6097,502,Urban
CZ0JKOS,4609048,Kosetice,AirBase,CZ,Kosetice,01/01/2005,12/31/2006,49.5767,15.0803,535,Rural
CZ0JTRE,4609974,Trebic,AirBase,CZ,TREBIC,01/01/2005,12/31/2006,49.2267,15.8672,462,Suburban
CZ0KCHM,4600272,Cheb,AirBase,CZ,CHEB,01/01/2005,12/31/2006,50.0700,12.3639,493,Suburban
CZ0KPRB,4600571,Prebuz,AirBase,CZ,Prebuz,01/01/2005,12/31/2006,50.3767,12.6181,904,Rural
CZ0KSOM,4600842,Sokolov,AirBase,CZ,SOKOLOV,01/01/2005,12/31/2006,50.1767,12.6700,476,Suburban
CZ0LCLM,4601212,Ceska Lipa,AirBase,CZ,Ceska Lipa,01/01/2005,12/31/2006,50.7033,14.5395,299,Urban
CZ0LFRU,4601570,Frydlant-udoli,AirBase,CZ,Frydlant-udoli,01/01/2005,12/31/2006,50.9433,15.0820,381,Rural
CZ0LJNM,4601932,Jablonec-mesto,AirBase,CZ,Jablonec-mesto,01/01/2005,12/31/2006,50.7267,15.1639,500,Urban
CZ0LLIM,4601182,Liberec-mesto,AirBase,CZ,LIBEREC,01/01/2005,12/31/2006,50.7700,15.0564,350,Urban
CZ0LSOU,4601840,Sous,AirBase,CZ,Sous,01/01/2005,12/31/2006,50.7933,15.3219,771,Rural
CZ0MJES,4602948,Jesenik,AirBase,CZ,Jesenik,01/01/2005,12/31/2006,50.2433,17.1911,625,Rural
CZ0MOLO,4602414,Olomouc,AirBase,CZ,OLOMOUC,01/01/2005,12/31/2006,49.6033,17.2456,214,Urban
CZ0MPRR,4602577,Prerov,AirBase,CZ,PREROV,01/01/2005,12/31/2006,49.4500,17.4558,210,Urban
CZ0MPST,4602589,Prostejov,AirBase,CZ,PROSTEJOV,01/01/2005,12/31/2006,49.4700,17.1086,218,Urban
CZ0PPLB,4605511,Plzen-Bory,AirBase,CZ,PLZEN,01/01/2005,12/31/2006,49.7267,13.3756,346,Urban
CZ0PPLL,4605512,Plzen-Lochotin,AirBase,CZ,PLZEN,01/01/2005,12/31/2006,49.7667,13.3684,360,Urban
CZ0PPLS,4605518,Plzen-Skvrnany,AirBase,CZ,PLZEN,01/01/2005,12/31/2006,49.7433,13.3208,337,Suburban
CZ0PPLV,4605514,Plzen-Doubravka,AirBase,CZ,PLZEN,01/01/2005,12/31/2006,49.7667,13.4250,348,Suburban
CZ0PPRM,4605572,Primda,AirBase,CZ,PRIMDA,01/01/2005,12/31/2006,49.6667,12.6778,740,Rural
CZ0SKLM,4608012,Kladno-stred mesta,AirBase,CZ,KLADNO,01/01/2005,12/31/2006,50.1433,14.1022,303,Urban
CZ0SKLS,4608018,Kladno-Svermov,AirBase,CZ,KLADNO,01/01/2005,12/31/2006,50.1667,14.1022,219,Urban
CZ0SMBO,4608214,Mlada Boleslav,AirBase,CZ,MADA BOLESLAV,01/01/2005,12/31/2006,50.4267,14.9139,398,Urban
CZ0SONR,4608437,Ondrejov,AirBase,CZ,Ondrejov,01/01/2005,12/31/2006,49.9200,14.7822,514,Rural
CZ0TBKR,4609107,Bily Kriz,AirBase,CZ,Bily Kriz,01/01/2005,12/31/2006,49.5000,18.5386,890,Rural
CZ0TBOM,4609142,Bohumin,AirBase,CZ,BOHUMIN,01/01/2005,12/31/2006,49.9000,18.3472,200,Suburban
CZ0TCTN,4609293,Cesky Tesin,AirBase,CZ,CESKY TESIN,01/01/2005,12/31/2006,49.7533,18.6097,285,Urban
CZ0TFMI,4609528,Frydek-Mistek,AirBase,CZ,FRYDEK-MISTEK,01/01/2005,12/31/2006,49.6767,18.3511,290,Suburban
CZ0THAR,4609707,Havirov,AirBase,CZ,HAVIROV,01/01/2005,12/31/2006,49.7933,18.4069,260,Urban
CZ0TKAR,4609007,Karvina,AirBase,CZ,KARVINA,01/01/2005,12/31/2006,49.8600,18.5514,238,Urban
CZ0TOFF,4609455,Ostrava-Fifejdy,AirBase,CZ,OSTRAVA,01/01/2005,12/31/2006,49.8433,18.2661,220,Urban
CZ0TOPO,4609454,Ostrava-Poruba/CHMU,AirBase,CZ,OSTRAVA,01/01/2005,12/31/2006,49.8267,18.1592,242,Suburban
CZ0TORV,4609471,Orlova,AirBase,CZ,Orlova,01/01/2005,12/31/2006,49.8767,18.4497,266,Urban
CZ0TOVK,4609410,Opava-Katerinky,AirBase,CZ,OPAVA,01/01/2005,12/31/2006,49.9433,17.9125,255,Urban
CZ0TOZR,4609457,Ostrava-Zabreh,AirBase,CZ,OSTRAVA,01/01/2005,12/31/2006,49.7933,18.2472,235,Urban
CZ0TSTD,4609893,Studenka,AirBase,CZ,Studenka,01/01/2005,12/31/2006,49.7267,18.0914,231,Rural
CZ0TTRK,4609970,Trinec-Kanada,AirBase,CZ,TRINEC,01/01/2005,12/31/2006,49.6767,18.6431,346,Urban
CZ0TTRO,4609975,Trinec-Kosmos,AirBase,CZ,TRINEC,01/01/2005,12/31/2006,49.6667,18.6800,320,Urban
CZ0UCHM,4600273,Chomutov,AirBase,CZ,CHOMUTOV,01/01/2005,12/31/2006,50.4667,13.4133,344,Urban
CZ0UDCM,4600322,Decin,AirBase,CZ,DECIN,01/01/2005,12/31/2006,50.7767,14.2239,131,Urban
CZ0UKRU,4600070,Krupka,AirBase,CZ,Krupka,01/01/2005,12/31/2006,50.6933,13.8489,533,Rural
CZ0ULOM,4600142,Lom,AirBase,CZ,Lom,01/01/2005,12/31/2006,50.5833,13.6731,265,Rural
CZ0ULTT,4600199,Litomerice,AirBase,CZ,LITOMERICE,01/01/2005,12/31/2006,50.5433,14.1208,190,Urban
CZ0UMED,4600243,Medenec,AirBase,CZ,Medenec,01/01/2005,12/31/2006,50.4267,13.1320,827,Rural
CZ0UMOM,4600242,Most,AirBase,CZ,MOST,01/01/2005,12/31/2006,50.5100,13.6486,221,Urban
CZ0URVH,4600717,Rudolice v Horach,AirBase,CZ,Rudolice v Horach,01/01/2005,12/31/2006,50.5767,13.4214,840,Rural
CZ0USNZ,4600835,Sneznik,AirBase,CZ,Sneznik,01/01/2005,12/31/2006,50.7933,14.0864,590,Rural
CZ0UTEM,4600942,Teplice - old,AirBase,CZ,TEPLICE,01/01/2005,12/31/2006,50.6433,13.8275,225,Urban
CZ0UTUS,4600908,Tusimice,AirBase,CZ,Tusimice,01/01/2005,12/31/2006,50.3767,13.3339,322,Rural
CZ0UULK,4600010,Usti n.L.-Kockov,AirBase,CZ,USTI NAD LABEM,01/01/2005,12/31/2006,50.6833,14.0425,367,Suburban
CZ0UULM,4600012,Usti n.L.-mesto,AirBase,CZ,USTI NAD LABEM,01/01/2005,12/31/2006,50.6600,14.0431,147,Urban
CZ0UVAL,4600101,Valdek,AirBase,CZ,Valdek,01/01/2005,12/31/2006,50.9767,14.5161,438,Rural
CZ0ZZLN,4605513,Zlin,AirBase,CZ,ZLIN,01/01/2005,12/31/2006,49.2333,17.6672,258,Suburban
DEBB021,6011021,Potsdam-Zentrum,AirBase,DE,POTSDAM,01/01/2005,12/31/2006,52.4000,13.0599,31,Urban
DEBB024,6011024,Senftenberg,AirBase,DE,Senftenberg,01/01/2005,12/31/2006,51.5167,13.9995,103,Urban
DEBB031,6011031,Konigs Wusterhausen,AirBase,DE,KoNIGS-WUSTERHAUSEN,01/01/2005,12/31/2006,52.2933,13.6278,48,Suburban
DEBB042,6011042,Frankfurt (Oder),AirBase,DE,Frankfurt (Oder),01/01/2005,12/31/2006,52.3433,14.5319,45,Suburban
DEBB043,6011043,Luckau,AirBase,DE,LUCKAU,01/01/2005,12/31/2006,51.8600,13.7065,62,Suburban
DEBB048,6011048,Neuruppin,AirBase,DE,NEURUPPIN,01/01/2005,12/31/2006,52.9367,12.8095,43,Suburban
DEBB050,6011050,Bernau,AirBase,DE,BERNAU,01/01/2005,12/31/2006,52.6833,13.5838,80,Suburban
DEBB052,6011052,Potsdam-Michendorfer Chaussee,AirBase,DE,POTSDAM,01/01/2005,12/31/2006,52.3433,13.0485,50,Suburban
DEBB053,6011053,Hasenholz,AirBase,DE,BUCKOW,01/01/2005,12/31/2006,52.5600,14.0153,88,Rural
DEBB055,6011055,Brandenburg a.d. Havel,AirBase,DE,Brandenburg a.d. Havel,01/01/2005,12/31/2006,52.4167,12.5523,33,Suburban
DEBB056,6011056,Paulinenaue,AirBase,DE,Paulinenaue,01/01/2005,12/31/2006,52.6933,12.7342,29,Rural
DEBB063,6011063,Wittenberge,AirBase,DE,Wittenberge,01/01/2005,12/31/2006,53.0033,11.7385,22,Suburban
DEBB064,6011064,Cottbus,AirBase,DE,Cottbus,01/01/2005,12/31/2006,51.7433,14.3346,75,Urban
DEBB065,6011065,Lutte (Belzig),AirBase,DE,Lutte (Belzig),01/01/2005,12/31/2006,52.1933,12.5614,114,Rural
DEBB066,6011066,Spreewald,AirBase,DE,Spreewald,01/01/2005,12/31/2006,51.8933,14.0571,52,Rural
DEBB067,6011067,Nauen,AirBase,DE,Nauen,01/01/2005,12/31/2006,52.6100,12.8852,31,Suburban
DEBE010,6000100,B Wedding-Amrumer Str.,AirBase,DE,BERLIN,01/01/2005,12/31/2006,52.5433,13.3491,35,Urban
DEBE018,6000108,B Schoneberg-Belziger Strabe,AirBase,DE,BERLIN,01/01/2005,12/31/2006,52.4833,13.3484,40,Urban
DEBE032,6010002,B Grunewald (3.5 m),AirBase,DE,BERLIN,01/01/2005,12/31/2006,52.4767,13.2258,50,Rural
DEBE034,6010004,B Neukolln-Nansenstrabe,AirBase,DE,BERLIN,01/01/2005,12/31/2006,52.4833,13.4340,35,Urban
DEBE051,7000001,B Buch,AirBase,DE,BERLIN,01/01/2005,12/31/2006,52.6333,13.4949,60,Suburban
DEBE056,7000006,B Friedrichshagen,AirBase,DE,BERLIN,01/01/2005,12/31/2006,52.4433,13.6470,35,Rural
DEBE062,6014062,B Frohnau Funkturm,AirBase,DE,BERLIN,01/01/2005,12/31/2006,52.6500,13.2964,50,Rural
DEBE066,6014066,B Karlshorst-Rheingoldstr./Konigswinterstr.,AirBase,DE,BERLIN,01/01/2005,12/31/2006,52.4833,13.5296,35,Urban
DEBE068,6014068,B Mitte Bruckenstrabe,AirBase,DE,BERLIN,01/01/2005,12/31/2006,52.5100,13.4188,35,Urban
DEBW004,6012004,Eggenstein,AirBase,DE,BERLIN,01/01/2005,12/31/2006,49.0867,8.4038,110,Rural
DEBW006,6012006,Mannheim-Mitte,AirBase,DE,MANNHEIM,01/01/2005,12/31/2006,49.4767,8.4781,95,Urban
DEBW007,6012007,Mannheim-Sud,AirBase,DE,MANNHEIM,01/01/2005,12/31/2006,49.4367,8.5256,95,Urban
DEBW010,6012010,Wiesloch,AirBase,DE,WIESLOCH,01/01/2005,12/31/2006,49.3000,8.6999,160,Suburban
DEBW013,6012013,Stuttgart Bad Cannstatt,AirBase,DE,STUTTGART,01/01/2005,12/31/2006,48.8100,9.2297,235,Urban
DEBW019,6012019,Ulm,AirBase,DE,ULM,01/01/2005,12/31/2006,48.3933,9.9791,480,Urban
DEBW024,6012024,Ludwigsburg,AirBase,DE,LUDWIGSBURG,01/01/2005,12/31/2006,48.9033,9.1729,300,Suburban
DEBW026,6012026,Plochingen,AirBase,DE,PLOCHINGEN,01/01/2005,12/31/2006,48.7100,9.4148,250,Suburban
DEBW027,6012027,Reutlingen,AirBase,DE,REUTLINGEN,01/01/2005,12/31/2006,48.4933,9.2073,385,Urban
DEBW029,6012029,Aalen,AirBase,DE,AALEN,01/01/2005,12/31/2006,48.8500,10.0983,420,Suburban
DEBW030,6012030,Welzheimer Wald,AirBase,DE,Welzheimer Wald,01/01/2005,12/31/2006,48.8833,9.5730,500,Rural
DEBW031,6012031,Schwarzwald Sud,AirBase,DE,Schwarzwald Sud,01/01/2005,12/31/2006,47.8100,7.7644,920,Rural
DEBW032,6012032,Pforzheim-Mitte,AirBase,DE,PFORZHEIM,01/01/2005,12/31/2006,48.8933,8.7051,250,Urban
DEBW034,6012034,Waiblingen,AirBase,DE,WAIBLINGEN,01/01/2005,12/31/2006,48.8367,9.3010,275,Suburban
DEBW037,6012037,Freudenstadt,AirBase,DE,FREUDENSTADT,01/01/2005,12/31/2006,48.4767,8.4124,750,Suburban
DEBW039,6012039,Villingen-Schwenningen,AirBase,DE,VILLINGEN-SCHWENNINGEN,01/01/2005,12/31/2006,48.0533,8.4638,705,Suburban
DEBW042,6012042,Bernhausen,AirBase,DE,BERNHAUSEN,01/01/2005,12/31/2006,48.6767,9.2276,370,Suburban
DEBW046,6012046,Biberach,AirBase,DE,BIBERACH,01/01/2005,12/31/2006,48.0933,9.7997,560,Suburban
DEBW052,6012052,Konstanz,AirBase,DE,KONSTANZ,01/01/2005,12/31/2006,47.6600,9.1693,400,Urban
DEBW056,6012056,Schwabisch Hall,AirBase,DE,SCHWaBISCH HALL,01/01/2005,12/31/2006,49.1100,9.7336,300,Suburban
DEBW059,6012059,Tauberbischofsheim,AirBase,DE,TAUBERBISCHOFSHEIM,01/01/2005,12/31/2006,49.6333,9.6579,177,Suburban
DEBW076,6012076,Baden-Baden,AirBase,DE,BADEN-BADEN,01/01/2005,12/31/2006,48.7767,8.2196,150,Suburban
DEBW081,6012081,Karlsruhe-Nordwest,AirBase,DE,KARLSRUHE,01/01/2005,12/31/2006,49.0267,8.3556,113,Suburban
DEBW084,6012084,Freiburg-Mitte,AirBase,DE,FREIBURG,01/01/2005,12/31/2006,48.0000,7.8318,240,Urban
DEBW087,6012087,Schwabische Alb,AirBase,DE,ERPFINGEN,01/01/2005,12/31/2006,48.3433,9.2078,799,Rural
DEBW094,6012094,Isny,AirBase,DE,ISNY,01/01/2005,12/31/2006,47.6933,10.0347,700,Suburban
DEBW103,6012103,Odenwald,AirBase,DE,WILHELMSFELD,01/01/2005,12/31/2006,49.4600,8.7538,520,Rural
DEBW107,6012107,Tubingen,AirBase,DE,Tubingen,01/01/2005,12/31/2006,48.5100,9.0504,320,Suburban
DEBW110,6012110,Pfullendorf,AirBase,DE,Pfullendorf,01/01/2005,12/31/2006,47.9367,9.2370,623,Suburban
DEBW111,6012111,Offenburg,AirBase,DE,Offenburg,01/01/2005,12/31/2006,48.4767,7.9378,150,Suburban
DEBW112,6012112,Gartringen,AirBase,DE,Gartringen,01/01/2005,12/31/2006,48.6533,8.9033,463,Suburban
DEBW113,6012113,Rastatt-West,AirBase,DE,Rastatt-West,01/01/2005,12/31/2006,48.8600,8.1521,112,Suburban
DEBY002,6014002,Arzberg/Egerstrabe,AirBase,DE,ARZBERG,01/01/2005,12/31/2006,50.0600,12.1887,480,Urban
DEBY003,6014003,Aschaffenburg/Schweinheimer Strabe,AirBase,DE,Aschaffenburg/Schweinheimer Strabe,01/01/2005,12/31/2006,49.9667,9.1508,133,Urban
DEBY004,6014004,Kleinwallstadt/Hofstetter Strabe,AirBase,DE,KLEINWALLSTADT,01/01/2005,12/31/2006,49.8667,9.1716,124,Suburban
DEBY005,6014005,Aschaffenburg/Bussardweg,AirBase,DE,ASCHAFFENBURG,01/01/2005,12/31/2006,49.9933,9.1180,134,Suburban
DEBY007,6014007,Augsburg/Bourges-Platz,AirBase,DE,AUGSBURG,01/01/2005,12/31/2006,48.3767,10.8884,477,Urban
DEBY009,6014009,Bamberg/Lowenbrucke,AirBase,DE,BAMBERG,01/01/2005,12/31/2006,49.8933,10.8877,231,Urban
DEBY013,6014013,Mehring/Sportplatz,AirBase,DE,MEHRING,01/01/2005,12/31/2006,48.1867,12.7814,415,Rural
DEBY020,6014020,Hof/Berliner Platz,AirBase,DE,HOF,01/01/2005,12/31/2006,50.3200,11.9043,518,Urban
DEBY021,6014021,Ingolstadt/Rechbergstrabe,AirBase,DE,INGOLSTADT,01/01/2005,12/31/2006,48.7667,11.4288,374,Urban
DEBY031,6014031,Kempten (Allgau)/Westendstrabe,AirBase,DE,KEMPTEN (ALLGaU),01/01/2005,12/31/2006,47.7267,10.3066,678,Urban
DEBY032,6014032,Kulmbach/Konrad-Adenauer-Strabe,AirBase,DE,KULMBACH,01/01/2005,12/31/2006,50.1000,11.4426,303,Urban
DEBY039,6014039,Munchen/Lothstrabe,AirBase,DE,MuNCHEN,01/01/2005,12/31/2006,48.1500,11.5547,521,Urban
DEBY047,6014047,Naila/Selbitzer Berg,AirBase,DE,NAILA,01/01/2005,12/31/2006,50.3267,11.7216,534,Rural
DEBY049,6014049,Neustadt a.d. Donau/Eining,AirBase,DE,NEUSTADT A.D.DONAU,01/01/2005,12/31/2006,48.8500,11.7778,359,Rural
DEBY052,6014052,Neu-Ulm/Gabelsbergerstrabe,AirBase,DE,NEU-ULM,01/01/2005,12/31/2006,48.3933,10.0083,470,Urban
DEBY062,6014063,Regen/Bodenmaiser Strabe,AirBase,DE,REGEN,01/01/2005,12/31/2006,48.9767,13.1289,545,Suburban
DEBY067,6014067,Schwandorf/Wackersdorfer Strabe,AirBase,DE,SCHWANDORF,01/01/2005,12/31/2006,49.3267,12.1281,380,Urban
DEBY072,6014072,Tiefenbach/Altenschneeberg,AirBase,DE,TIEFENBACH,01/01/2005,12/31/2006,49.4433,12.5489,755,Rural
DEBY077,6014077,Wurzburg/Kopfklinik,AirBase,DE,WuRZBURG,01/01/2005,12/31/2006,49.8000,9.9564,226,Suburban
DEBY079,6014079,Bad Reichenhall/Nonn,AirBase,DE,BAD REICHENHALL,01/01/2005,12/31/2006,47.7267,12.8589,465,Suburban
DEBY081,6014081,Garmisch-Partenkirchen/Kreuzeckbahnstrabe,AirBase,DE,GARMISCH-PARTENKIRCHEN,01/01/2005,12/31/2006,47.4767,11.0631,735,Rural
DEBY089,6014089,Munchen/Johanneskirchen,AirBase,DE,MuNCHEN,01/01/2005,12/31/2006,48.1767,11.6480,513,Suburban
DEBY099,6014099,Augsburg/LfU,AirBase,DE,AUGSBURG,01/01/2005,12/31/2006,48.3267,10.9030,495,Suburban
DEBY109,6014109,Andechs/Rothenfeld,AirBase,DE,Andechs/Rothenfeld,01/01/2005,12/31/2006,47.9667,11.2202,700,Rural
DEBY113,6014113,Erlangen/Kraepelinstrabe,AirBase,DE,Erlangen/Kraepelinstrabe,01/01/2005,12/31/2006,49.6100,10.9635,284,Suburban
DEHB001,6071001,Bremen-Mitte,AirBase,DE,BREMEN,01/01/2005,12/31/2006,53.0833,8.8100,10,Urban
DEHB002,6071002,Bremen-Ost,AirBase,DE,BREMEN,01/01/2005,12/31/2006,53.0600,8.9170,7,Urban
DEHB003,6071003,Bremen-West,AirBase,DE,BREMEN,01/01/2005,12/31/2006,53.1100,8.7556,6,Urban
DEHB004,6071004,Bremen-Nord,AirBase,DE,BREMEN,01/01/2005,12/31/2006,53.1767,8.6255,20,Urban
DEHB005,6071005,Bremerhaven,AirBase,DE,Bremerhaven,01/01/2005,12/31/2006,53.5600,8.5694,3,Urban
DEHE001,6074001,Darmstadt,AirBase,DE,DARMSTADT,01/01/2005,12/31/2006,49.8767,8.6646,158,Urban
DEHE008,6074008,Frankfurt-Ost,AirBase,DE,FRANKFURT A. MAIN,01/01/2005,12/31/2006,50.1267,8.7463,100,Urban
DEHE018,6074018,Raunheim,AirBase,DE,RAUNHEIM,01/01/2005,12/31/2006,50.0100,8.4515,90,Urban
DEHE022,6074022,Wiesbaden-Sud,AirBase,DE,WIESBADEN,01/01/2005,12/31/2006,50.0500,8.2450,121,Urban
DEHE023,6074023,Grebenau,AirBase,DE,GREBENAU,01/01/2005,12/31/2006,50.7600,9.4646,373,Rural
DEHE024,6074024,Witzenhausen/Wald,AirBase,DE,WITZENHAUSEN/WALD,01/01/2005,12/31/2006,51.2933,9.7746,610,Rural
DEHE026,6074026,Spessart,AirBase,DE,SPESSART,01/01/2005,12/31/2006,50.1600,9.3994,502,Rural
DEHE028,6074028,Furth/Odenwald,AirBase,DE,FuRTH/ODENWALD,01/01/2005,12/31/2006,49.6500,8.8173,484,Rural
DEHE030,6074030,Marburg,AirBase,DE,MARBURG,01/01/2005,12/31/2006,50.8000,8.7693,182,Urban
DEHE032,6074032,Bebra,AirBase,DE,BEBRA,01/01/2005,12/31/2006,50.9667,9.8003,204,Urban
DEHE042,6074042,Linden/Leihgestern,AirBase,DE,Linden/Leihgestern,01/01/2005,12/31/2006,50.5367,8.6844,172,Rural
DEHE043,6074043,Riedstadt,AirBase,DE,RIEDSTADT,01/01/2005,12/31/2006,49.8267,8.5168,87,Rural
DEHE044,6074044,Limburg,AirBase,DE,LIMBURG,01/01/2005,12/31/2006,50.3867,8.0610,128,Urban
DEHE045,6074045,Michelstadt,AirBase,DE,MICHAELSTADT,01/01/2005,12/31/2006,49.6767,9.0020,209,Urban
DEHE046,6074046,Bad Arolsen,AirBase,DE,BAD AROLSEN/KOHLGRUND,01/01/2005,12/31/2006,51.4267,8.9282,343,Rural
DEHE051,6074051,Wasserkuppe,AirBase,DE,WASSERKUPPE,01/01/2005,12/31/2006,50.4933,9.9359,931,Rural
DEHE052,6074052,Kleiner Feldberg,AirBase,DE,Kleiner Feldberg,01/01/2005,12/31/2006,50.2267,8.4461,811,Rural
DEHE058,6074058,Fulda-Mitte,AirBase,DE,Fulda-Mitte,01/01/2005,12/31/2006,50.5533,9.6822,272,Urban
DEHE060,6074060,Kellerwald,AirBase,DE,Kellerwald,01/01/2005,12/31/2006,51.1500,9.0318,483,Rural
DEHH008,6077008,Hamburg Sternschanze,AirBase,DE,HAMBURG,01/01/2005,12/31/2006,53.5600,9.9679,15,Urban
DEHH015,6077015,Hamburg Veddel,AirBase,DE,HAMBURG,01/01/2005,12/31/2006,53.5267,10.0212,4,Urban
DEHH021,6077021,Hamburg Tatenberg,AirBase,DE,HAMBURG,01/01/2005,12/31/2006,53.4833,10.0836,2,Suburban
DEHH033,6077033,Hamburg Flughafen Nord,AirBase,DE,HAMBURG,01/01/2005,12/31/2006,53.6333,9.9980,13,Urban
DEHH047,6077047,Hamburg Bramfeld,AirBase,DE,HAMBURG,01/01/2005,12/31/2006,53.6267,10.1106,31,Suburban
DEHH049,6077049,Hamburg Blankenese-Baursberg,AirBase,DE,HAMBURG,01/01/2005,12/31/2006,53.5667,9.7862,75,Suburban
DEHH050,6077050,Hamburg Neugraben,AirBase,DE,HAMBURG,01/01/2005,12/31/2006,53.4767,9.8572,3,Suburban
DEHH054,6077054,HH Bergedorf,AirBase,DE,HAMBURG,01/01/2005,12/31/2006,53.4933,10.2066,13,Urban
DEHH059,6077059,Hamburg Wilhelmsburg,AirBase,DE,HAMBURG,01/01/2005,12/31/2006,53.5100,9.9906,3,Urban
DEHH074,6077074,Hamburg Billstedt,AirBase,DE,HAMBURG,01/01/2005,12/31/2006,53.5433,10.1028,18,Urban
DEMV004,6021004,Gulzow,AirBase,DE,Gulzow,01/01/2005,12/31/2006,53.8167,12.0658,17,Rural
DEMV007,6021007,Rostock-Stuthof,AirBase,DE,Rostock-Stuthof,01/01/2005,12/31/2006,54.1600,12.1750,5,Suburban
DEMV012,6021012,Locknitz,AirBase,DE,MEWEGEN,01/01/2005,12/31/2006,53.5167,14.2583,21,Rural
DEMV017,6021017,Gohlen,AirBase,DE,GoHLEN,01/01/2005,12/31/2006,53.3000,11.3629,25,Rural
DEMV018,6021018,Zarrentin,AirBase,DE,ZARRENTIN,01/01/2005,12/31/2006,53.5433,10.9287,41,Suburban
DEMV019,6021019,Gustrow,AirBase,DE,Gustrow,01/01/2005,12/31/2006,53.7767,12.1755,17,Urban
DENI011,6038011,Braunschweig,AirBase,DE,Braunschweig,01/01/2005,12/31/2006,52.2267,10.4735,98,Suburban
DENI016,6038016,Oker/Harlingerode,AirBase,DE,Oker/Harlingerode,01/01/2005,12/31/2006,51.9000,10.4814,220,Suburban
DENI019,6038019,Solling,AirBase,DE,Solling,01/01/2005,12/31/2006,51.7600,9.5777,500,Rural
DENI020,6038020,Wolfsburg,AirBase,DE,WOLFSBURG,01/01/2005,12/31/2006,52.4433,10.8162,60,Suburban
DENI028,6038028,Eichsfeld,AirBase,DE,Eichsfeld,01/01/2005,12/31/2006,51.5100,10.2381,185,Suburban
DENI029,6038029,Ostfriesland,AirBase,DE,Ostfriesland,01/01/2005,12/31/2006,53.3600,7.2070,1,Suburban
DENI031,6038031,Jadebusen,AirBase,DE,Jadebusen,01/01/2005,12/31/2006,53.5933,8.0907,2,Rural
DENI038,6038038,Osnabruck,AirBase,DE,OSNABRUECK,01/01/2005,12/31/2006,52.2600,8.0526,95,Urban
DENI041,6038041,Weserbergland,AirBase,DE,Weserbergland,01/01/2005,12/31/2006,52.1767,9.0669,58,Suburban
DENI042,6038042,Gottingen,AirBase,DE,GOETTINGEN,01/01/2005,12/31/2006,51.5500,9.9496,165,Suburban
DENI043,6038043,Emsland,AirBase,DE,Emsland,01/01/2005,12/31/2006,52.4933,7.3173,30,Suburban
DENI051,6038051,Wurmberg,AirBase,DE,Wurmberg,01/01/2005,12/31/2006,51.7600,10.6181,930,Rural
DENI052,6038052,Allertal,AirBase,DE,Allertal,01/01/2005,12/31/2006,52.8267,9.6233,50,Suburban
DENI054,6038054,Hannover,AirBase,DE,Hannover,01/01/2005,12/31/2006,52.3600,9.7153,80,Urban
DENI058,6038058,Ostfries. Inseln,AirBase,DE,Ostfries. Inseln,01/01/2005,12/31/2006,53.7100,7.2148,1,Rural
DENI059,6038059,Elbmundung,AirBase,DE,Elbmundung,01/01/2005,12/31/2006,53.8267,8.8012,3,Rural
DENI060,6038060,Wendland,AirBase,DE,Wendland,01/01/2005,12/31/2006,52.9600,11.1669,50,Rural
DENI062,6038062,Luneburger Heide,AirBase,DE,Luneburger Heide,01/01/2005,12/31/2006,53.2433,10.4563,13,Suburban
DENI063,6038063,Altes Land,AirBase,DE,Altes Land,01/01/2005,12/31/2006,53.5267,9.6850,3,Rural
DENW002,6032002,Datteln-Hagem,AirBase,DE,DATTELN,01/01/2005,12/31/2006,51.6433,7.3314,80,Suburban
DENW006,6032006,Lunen-Niederaden,AirBase,DE,LuNEN,01/01/2005,12/31/2006,51.5933,7.5698,58,Suburban
DENW008,6032008,Dortmund-Eving,AirBase,DE,DORTMUND,01/01/2005,12/31/2006,51.5333,7.4575,75,Urban
DENW010,6032010,Unna-Konigsborn,AirBase,DE,UNNA,01/01/2005,12/31/2006,51.5433,7.6938,72,Suburban
DENW011,6032011,Dortmund-Horde,AirBase,DE,DORTMUND,01/01/2005,12/31/2006,51.4933,7.4980,110,Suburban
DENW022,6032022,Gelsenkirchen-Bismarck,AirBase,DE,GELSENKIRCHEN,01/01/2005,12/31/2006,51.5333,7.1018,40,Suburban
DENW024,6032024,Essen-Vogelheim,AirBase,DE,ESSEN,01/01/2005,12/31/2006,51.4933,6.9810,47,Urban
DENW029,6032029,Hattingen-Blankenstein,AirBase,DE,HATTINGEN,01/01/2005,12/31/2006,51.4000,7.2086,93,Suburban
DENW030,6032030,Wesel-Feldmark,AirBase,DE,WESEL,01/01/2005,12/31/2006,51.6767,6.6296,25,Suburban
DENW038,6032038,Mulheim-Styrum,AirBase,DE,MuLHEIM,01/01/2005,12/31/2006,51.4500,6.8651,37,Urban
DENW042,6032042,Krefeld-Linn,AirBase,DE,KREFELD,01/01/2005,12/31/2006,51.3333,6.6402,32,Urban
DENW053,6032053,Koln-Chorweiler,AirBase,DE,KoLN,01/01/2005,12/31/2006,51.0167,6.8846,45,Suburban
DENW059,6032059,Koln-Rodenkirchen,AirBase,DE,KoLN,01/01/2005,12/31/2006,50.8933,6.9852,45,Suburban
DENW062,6032062,Bonn-Auerberg,AirBase,DE,BONN,01/01/2005,12/31/2006,50.7500,7.0827,57,Suburban
DENW063,6032063,Horn-Bad Meinberg Egge,AirBase,DE,VELDROM,01/01/2005,12/31/2006,51.8267,8.9506,430,Rural
DENW064,6032064,Simmerath Eifel,AirBase,DE,SIMMERATH,01/01/2005,12/31/2006,50.6500,6.2811,572,Rural
DENW065,6032065,Netphen Rothaargebirge,AirBase,DE,Netphen Rothaargebirge,01/01/2005,12/31/2006,50.9267,8.1919,635,Rural
DENW067,6032067,Bielefeld-Ost,AirBase,DE,BIELEFELD,01/01/2005,12/31/2006,52.0267,8.5484,102,Urban
DENW068,6032068,Soest-Ost,AirBase,DE,SOEST,01/01/2005,12/31/2006,51.5667,8.1481,110,Rural
DENW071,6032071,Dusseldorf-Lorick,AirBase,DE,DuSSELDORF,01/01/2005,12/31/2006,51.2533,6.7324,32,Suburban
DENW078,6032078,Ratingen-Tiefenbroich,AirBase,DE,RATINGEN,01/01/2005,12/31/2006,51.3000,6.8200,41,Suburban
DENW079,6032079,Leverkusen-Manfort,AirBase,DE,LEVERKUSEN,01/01/2005,12/31/2006,51.0267,7.0051,50,Suburban
DENW080,6032080,Solingen-Wald,AirBase,DE,SOLINGEN,01/01/2005,12/31/2006,51.1833,7.0526,207,Suburban
DENW081,6032081,Borken-Gemen,AirBase,DE,BORKEN,01/01/2005,12/31/2006,51.8600,6.8746,45,Rural
DENW094,6032094,Aachen-Burtscheid,AirBase,DE,AACHEN,01/01/2005,12/31/2006,50.7500,6.0939,205,Urban
DENW095,6032095,Munster-Geist,AirBase,DE,MuNSTER,01/01/2005,12/31/2006,51.9333,7.6116,63,Urban
DENW096,6032096,Monchengladbach-Rheydt,AirBase,DE,MoNCHENGLADBACH,01/01/2005,12/31/2006,51.1500,6.4257,78,Suburban
DENW114,6032114,Wuppertal-Langerfeld,AirBase,DE,Wuppertal-Langerfeld,01/01/2005,12/31/2006,51.2767,7.2319,186,Urban
DENW179,6032179,Schwerte neu,AirBase,DE,SCHWERTE,01/01/2005,12/31/2006,51.4533,7.5823,157,Urban
DERP001,6075001,Ludwigshafen-Oppau,AirBase,DE,LUDWIGSHAFEN,01/01/2005,12/31/2006,49.5200,8.4024,91,Urban
DERP007,6075007,Mainz-Mombach,AirBase,DE,MAINZ,01/01/2005,12/31/2006,50.0167,8.2165,120,Urban
DERP009,6075009,Mainz-Zitadelle,AirBase,DE,MAINZ,01/01/2005,12/31/2006,49.9933,8.2740,110,Urban
DERP013,6075013,Westpfalz-Waldmohr,AirBase,DE,DUNZWEILER,01/01/2005,12/31/2006,49.4267,7.2935,455,Rural
DERP014,6075014,Hunsruck-Leisel,AirBase,DE,LEISEL,01/01/2005,12/31/2006,49.7433,7.1935,650,Rural
DERP015,6075015,Westeifel Wascheid,AirBase,DE,WASCHEID,01/01/2005,12/31/2006,50.2700,6.3806,680,Rural
DERP016,6075016,Westerwald-Herdorf,AirBase,DE,HERDORF,01/01/2005,12/31/2006,50.7667,7.9727,480,Rural
DERP017,6075017,Pfalzerwald-Hortenkopf,AirBase,DE,HORTENKOPF,01/01/2005,12/31/2006,49.2667,7.8265,606,Rural
DERP019,6075019,Kaiserslautern-Rathausplatz,AirBase,DE,KAISERSLAUTERN,01/01/2005,12/31/2006,49.4433,7.7689,232,Urban
DERP021,6075021,Neuwied-Hafenstrabe,AirBase,DE,NEUWIED,01/01/2005,12/31/2006,50.4267,7.4814,65,Urban
DERP022,6075022,Bad Kreuznach-Bosenheimer Strabe,AirBase,DE,Bad Kreuznach-Bosenheimer Strabe,01/01/2005,12/31/2006,49.8433,7.8662,108,Urban
DERP025,6075025,Worth-Marktplatz,AirBase,DE,WoRTH,01/01/2005,12/31/2006,49.0500,8.2536,104,Urban
DERP028,6075028,Westerwald-Neuhausel,AirBase,DE,NEUSTADT,01/01/2005,12/31/2006,50.4267,7.7325,540,Rural
DERP042,6075042,Pirmasens Schaferstr.,AirBase,DE,Pirmasens Schaferstr.,01/01/2005,12/31/2006,49.2033,7.6031,361,Urban
DESH001,6087001,Altendeich,AirBase,DE,Altendeich,01/01/2005,12/31/2006,53.6667,9.5859,8,Rural
DESH008,6087008,Bornhoved,AirBase,DE,Bornhoved,01/01/2005,12/31/2006,54.0933,10.2406,45,Rural
DESH015,6087015,Itzehoe,AirBase,DE,Itzehoe,01/01/2005,12/31/2006,53.9267,9.5326,40,Suburban
DESH016,6087016,Barsbuttel,AirBase,DE,Barsbuttel,01/01/2005,12/31/2006,53.5667,10.2149,42,Suburban
DESH021,6087021,Kiel Schauenburger Str.,AirBase,DE,KIEL,01/01/2005,12/31/2006,54.3367,10.1362,10,Urban
DESH023,6087023,Lubeck-St. Jurgen,AirBase,DE,LuBECK,01/01/2005,12/31/2006,53.8333,10.6959,12,Urban
DESL002,6081002,Bexbach Schule,AirBase,DE,BEXBACH,01/01/2005,12/31/2006,49.3600,7.2632,273,Urban
DESL003,6081003,Dillingen City,AirBase,DE,DILLINGEN,01/01/2005,12/31/2006,49.3600,6.7335,185,Urban
DESL011,6081011,Saarbrucken-Eschberg,AirBase,DE,SAARBRuCKEN,01/01/2005,12/31/2006,49.2333,7.0363,315,Urban
DESL012,6081012,Saarbrucken-City,AirBase,DE,SAARBRuCKEN,01/01/2005,12/31/2006,49.2333,6.9876,192,Urban
DESL013,6081013,Saarlouis-Fraulautern,AirBase,DE,SAARLOUIS,01/01/2005,12/31/2006,49.3267,6.7536,181,Suburban
DESL017,6081017,Volklingen-City Stadionstr.,AirBase,DE,Volklingen-City Stadionstr.,01/01/2005,12/31/2006,49.2500,6.8677,189,Urban
DESL018,6081018,Sulzbach,AirBase,DE,Sulzbach,01/01/2005,12/31/2006,49.3033,7.0617,236,Urban
DESL019,6081019,Biringen,AirBase,DE,Biringen,01/01/2005,12/31/2006,49.4167,6.5520,339,Rural
DESN001,6083001,Annaberg-Buchholz,AirBase,DE,ANNABERG-BUCHHOLZ,01/01/2005,12/31/2006,50.5667,12.9973,545,Urban
DESN004,6083004,Bautzen,AirBase,DE,BAUTZEN,01/01/2005,12/31/2006,51.1767,14.4438,203,Urban
DESN011,6083011,Chemnitz-Mitte,AirBase,DE,CHEMNITZ,01/01/2005,12/31/2006,50.8367,12.9173,300,Urban
DESN012,6083012,Delitzsch,AirBase,DE,DELITZSCH,01/01/2005,12/31/2006,51.5267,12.3376,100,Urban
DESN017,6083017,Freiberg,AirBase,DE,FREIBERG,01/01/2005,12/31/2006,50.9200,13.3468,393,Urban
DESN019,6083019,Glauchau,AirBase,DE,GLAUCHAU,01/01/2005,12/31/2006,50.8267,12.5421,233,Urban
DESN024,6083024,Klingenthal,AirBase,DE,KLINGENTAL,01/01/2005,12/31/2006,50.3500,12.4689,540,Urban
DESN045,6083045,Zittau-Ost,AirBase,DE,Zittau-Ost,01/01/2005,12/31/2006,50.8933,14.8228,230,Suburban
DESN049,6083049,Carlsfeld,AirBase,DE,CARLSFELD,01/01/2005,12/31/2006,50.4267,12.6111,896,Rural
DESN050,6083050,Hoyerswerda,AirBase,DE,HOYERSWERDA,01/01/2005,12/31/2006,51.4333,14.2543,117,Urban
DESN051,6083051,Radebeul-Wahnsdorf,AirBase,DE,RADEBEUL,01/01/2005,12/31/2006,51.1167,13.6750,246,Rural
DESN052,6083052,Zinnwald,AirBase,DE,ZINNWALD,01/01/2005,12/31/2006,50.7267,13.7515,877,Rural
DESN053,6083053,Fichtelberg,AirBase,DE,OBERWIESENTHAL,01/01/2005,12/31/2006,50.4267,12.9535,1214,Rural
DESN059,6083059,Leipzig-West,AirBase,DE,Leipzig-West,01/01/2005,12/31/2006,51.3167,12.2974,115,Urban
DESN074,6083074,Schwartenberg,AirBase,DE,NEUHAUSEN,01/01/2005,12/31/2006,50.6600,13.4651,785,Rural
DESN076,6083076,Collmberg,AirBase,DE,COLLM,01/01/2005,12/31/2006,51.3000,13.0094,313,Rural
DESN079,6083079,Niesky,AirBase,DE,Niesky,01/01/2005,12/31/2006,51.2833,14.7497,148,Rural
DESN085,6083085,Dresden-HerzoginGarten,AirBase,DE,DRESDEN,01/01/2005,12/31/2006,51.0500,13.7287,112,Urban
DEST002,6089002,Burg,AirBase,DE,Burg,01/01/2005,12/31/2006,52.2667,11.8648,40,Suburban
DEST011,6089011,Wernigerode/Bahnhof,AirBase,DE,Wernigerode/Bahnhof,01/01/2005,12/31/2006,51.8433,10.7902,230,Urban
DEST028,6089028,Zeitz,AirBase,DE,ZEITZ,01/01/2005,12/31/2006,51.0500,12.1413,160,Urban
DEST039,6089039,Brocken,AirBase,DE,SCHIERKE,01/01/2005,12/31/2006,51.8033,10.6183,1142,Rural
DEST044,6089044,Halberstadt,AirBase,DE,Halberstadt,01/01/2005,12/31/2006,51.8933,11.0575,110,Urban
DEST050,6089050,Halle/Nord,AirBase,DE,Halle/Nord,01/01/2005,12/31/2006,51.4933,11.9791,120,Urban
DEST063,6089063,Stendal,AirBase,DE,STENDAL,01/01/2005,12/31/2006,52.6033,11.8644,35,Urban
DEST066,6089066,Wittenberg/Bahnstrasse,AirBase,DE,Wittenberg/Bahnstrasse,01/01/2005,12/31/2006,51.8667,12.6637,80,Urban
DEST069,6089069,Salzwedel,AirBase,DE,SALZWEDEL,01/01/2005,12/31/2006,52.8600,11.1739,23,Rural
DEST072,6089072,Halle/Ost,AirBase,DE,HALLE/SAALE,01/01/2005,12/31/2006,51.4833,12.0044,100,Suburban
DEST077,6089077,Magdeburg/West,AirBase,DE,Magdeburg/West,01/01/2005,12/31/2006,52.1267,11.6115,50,Urban
DEST078,6089078,Naumburg,AirBase,DE,NAUMBURG,01/01/2005,12/31/2006,51.1600,11.8182,130,Urban
DEST089,6089089,Zartau/Waldstation,AirBase,DE,BITTERFELD,01/01/2005,12/31/2006,52.5933,11.1724,95,Rural
DEST098,6089098,Unterharz / Friedrichsbrunn,AirBase,DE,Unterharz / Friedrichsbrunn,01/01/2005,12/31/2006,51.6600,11.0434,410,Rural
DETH005,6097005,Saalfeld,AirBase,DE,Saalfeld,01/01/2005,12/31/2006,50.6500,11.3689,210,Urban
DETH009,6097009,Gera Friedericistr.,AirBase,DE,GERA,01/01/2005,12/31/2006,50.8767,12.0747,190,Urban
DETH013,6097013,Eisenach Wernebrg.Str,AirBase,DE,Eisenach Wernebrg.Str,01/01/2005,12/31/2006,50.9767,10.3172,210,Urban
DETH018,6097018,Nordhausen,AirBase,DE,NORDHAUSEN,01/01/2005,12/31/2006,51.4933,10.7914,185,Urban
DETH025,6097025,Meiningen,AirBase,DE,MEININGEN,01/01/2005,12/31/2006,50.5667,10.4149,285,Urban
DETH026,6097026,Dreibigacker,AirBase,DE,DREIbIGACKER,01/01/2005,12/31/2006,50.5600,10.3753,450,Rural
DETH027,6097027,Neuhaus,AirBase,DE,Neuhaus,01/01/2005,12/31/2006,50.5033,11.1346,840,Rural
DETH036,6097036,Greiz Mollbergstr.,AirBase,DE,Greiz Mollbergstr.,01/01/2005,12/31/2006,50.6600,12.2052,265,Urban
DETH040,6097040,Grober Eisenberg,AirBase,DE,EISENACH,01/01/2005,12/31/2006,50.6167,10.7871,907,Rural
DETH041,6097041,Jena Dammstr.,AirBase,DE,Jena Dammstr.,01/01/2005,12/31/2006,50.9333,11.5971,140,Urban
DETH042,6097042,Possen,AirBase,DE,POSSEN,01/01/2005,12/31/2006,51.3367,10.8672,420,Rural
DETH060,6097060,Zella-Mehlis,AirBase,DE,ZELLA-MEHLIS,01/01/2005,12/31/2006,50.6500,10.6686,490,Urban
DETH061,6097061,Hummelshain,AirBase,DE,Hummelshain,01/01/2005,12/31/2006,50.7933,11.6612,357,Rural
DEUB001,6001001,Westerland,AirBase,DE,WESTERLAND,01/01/2005,12/31/2006,54.9267,8.3082,12,Rural
DEUB004,6001004,Schauinsland,AirBase,DE,OBERRIED-HOFSGRUND,01/01/2005,12/31/2006,47.9100,7.9080,1205,Rural
DEUB005,6001005,Waldhof,AirBase,DE,ZELLA-MEHLIS,01/01/2005,12/31/2006,52.8000,10.7567,74,Rural
DEUB028,6001028,Zingst,AirBase,DE,ZINGST,01/01/2005,12/31/2006,54.4333,12.7219,1,Rural
DEUB029,6001029,Schmucke,AirBase,DE,GEHLBERG,01/01/2005,12/31/2006,50.6500,10.7695,937,Rural
DEUB030,6001030,Neuglobsow,AirBase,DE,NEUGLOBSOW,01/01/2005,12/31/2006,53.1433,13.0317,65,Rural
DK0031R,600317,Ulborg,AirBase,DK,Ulborg,01/01/2005,12/31/2006,56.2833,8.4333,37,Rural
DK0041A,600410,Lille Valby/2090,AirBase,DK,Lille Valby,01/01/2005,12/31/2006,55.6933,12.1186,10,Rural
DK0045A,600450,Copenhagen/1259,AirBase,DK,COPENHAGEN,01/01/2005,12/31/2006,55.7000,12.5614,25,Urban
DK0046A,600460,Odense/9159,AirBase,DK,ODENSE,01/01/2005,12/31/2006,55.3933,10.3892,25,Urban
DK0052A,600520,Arhus/6159,AirBase,DK,ARHUS,01/01/2005,12/31/2006,56.1500,10.1972,20,Urban
DK0053A,600530,Aalborg/8158,AirBase,DK,AALBORG,01/01/2005,12/31/2006,57.0433,9.9309,30,Urban
DK0054A,600540,Keldsnor/9054,AirBase,DK,KELDSNOR,01/01/2005,12/31/2006,54.7433,10.7364,3,Rural
EE0009R,4300097,Lahemaa,AirBase,EE,Lahemaa,01/01/2005,12/31/2006,59.4933,25.9306,32,Rural
EE0011R,4300117,Vilsandi,AirBase,EE,Vilsandi,01/01/2005,12/31/2006,58.3767,21.8450,6,Rural
EE0016A,4300160,Saarejarve,AirBase,EE,Saarejarve,01/01/2005,12/31/2006,58.7000,26.7589,50,Rural
EE0018A,4300180,Oismae,AirBase,EE,TALLINN,01/01/2005,12/31/2006,59.4100,24.6495,6,Urban
ES0007R,2200077,VIZNAR,AirBase,ES,VIZNAR,01/01/2005,12/31/2006,37.2333,-3.5342,1242,Rural
ES0008R,2200087,NIEMBRO,AirBase,ES,LLANES,01/01/2005,12/31/2006,43.4433,-4.8497,115,Rural
ES0009R,2200097,CAMPISABALOS,AirBase,ES,CAMPISABALOS,01/01/2005,12/31/2006,41.2767,-3.1425,1360,Rural
ES0010R,2200107,CABO CREUS,AirBase,ES,CADAQUeS,01/01/2005,12/31/2006,42.3167,3.3158,31,Rural
ES0011R,2200117,BARCARROTA,AirBase,ES,BARCARROTA,01/01/2005,12/31/2006,38.4767,-6.9233,365,Rural
ES0012R,2200127,ZARRA,AirBase,ES,ZARRA,01/01/2005,12/31/2006,39.0867,-1.1008,835,Rural
ES0013R,2200137,PENAUSENDE,AirBase,ES,PENAUSENDE,01/01/2005,12/31/2006,41.2433,-5.8975,968,Rural
ES0014R,2200147,ELS TORMS,AirBase,ES,TORMS (ELS),01/01/2005,12/31/2006,41.3933,0.7347,471,Rural
ES0015R,2200157,RISCO LLANO,AirBase,ES,SAN PABLO DE LOS MONTES,01/01/2005,12/31/2006,39.5167,-4.3531,1208,Rural
ES0016R,2200167,O SAVINAO,AirBase,ES,SAVINAO (O),01/01/2005,12/31/2006,42.6333,-7.7047,530,Rural
ES0126A,2201260,FAROLILLO,AirBase,ES,MADRID,01/01/2005,12/31/2006,40.3933,-3.7320,625,Urban
ES1038A,2210380,ZAPATON,AirBase,ES,TORRELAVEGA,01/01/2005,12/31/2006,43.3433,-4.0494,20,Urban
ES1039A,2210390,ESCUELA DE MINAS,AirBase,ES,TORRELAVEGA,01/01/2005,12/31/2006,43.3600,-4.0636,20,Urban
ES1182A,2211820,ESTACION FERROCARRIL,AirBase,ES,GANDIA,01/01/2005,12/31/2006,38.9667,-0.1900,22,Urban
ES1193A,2211930,CASA DE CAMPO,AirBase,ES,MADRID,01/01/2005,12/31/2006,40.4167,-3.7492,645,Suburban
ES1224A,2212240,CEMENTERIO DEL CARMEN,AirBase,ES,VALLADOLID,01/01/2005,12/31/2006,41.6767,-4.6953,693,Suburban
ES1348A,2213480,AZ-BELLVER DE CERDANYA,AirBase,ES,BELLVER DE CERDANYA,01/01/2005,12/31/2006,42.3667,1.7781,1060,Rural
ES1351A,2213510,ARRIGORRIAGA,AirBase,ES,ARRIGORRIAGA,01/01/2005,12/31/2006,43.2100,-2.9761,53,Urban
ES1370A,2213700,MOTRIL,AirBase,ES,MOTRIL,01/01/2005,12/31/2006,36.7433,-3.5200,50,Urban
ES1397A,2213970,E8-MANLLEU,AirBase,ES,MANLLEU,01/01/2005,12/31/2006,42.0000,2.2883,460,Suburban
ES1400A,2214000,BUJARALOZ,AirBase,ES,BUJARALOZ,01/01/2005,12/31/2006,41.5100,-0.1519,327,Rural
ES1405A,2214050,VALLIBONA,AirBase,ES,VALLIBONA,01/01/2005,12/31/2006,40.5833,0.0094,1235,Rural
ES1418A,2214180,ALAGON,AirBase,ES,ALAGON,01/01/2005,12/31/2006,41.7600,-1.1433,235,Rural
ES1425A,2214250,PRINCIPE,AirBase,ES,SEVILLA,01/01/2005,12/31/2006,37.3767,-6.0044,9,Urban
ES1435A,2214350,VILAFRANCA,AirBase,ES,VILLAFRANCA DEL CID,01/01/2005,12/31/2006,40.4167,-0.2492,1125,Rural
ES1437A,2214370,CORATXAR,AirBase,ES,POBLA DE BENIFASSA (LA),01/01/2005,12/31/2006,40.6933,0.0847,1200,Rural
ES1441A,2214410,MORELLA,AirBase,ES,MORELLA,01/01/2005,12/31/2006,40.6333,-0.0911,1150,Rural
ES1443A,2214430,BURGOS 4,AirBase,ES,BURGOS,01/01/2005,12/31/2006,42.3333,-3.6361,929,Suburban
ES1449A,2214490,SAN JOSe,AirBase,ES,SALAMANCA,01/01/2005,12/31/2006,40.9533,-5.6583,797,Urban
ES1450A,2214500,SANTA CLARA,AirBase,ES,SEVILLA,01/01/2005,12/31/2006,37.3933,-5.9517,29,Suburban
ES1472A,2214720,ITURRAMA,AirBase,ES,PAMPLONA/IRUNA,01/01/2005,12/31/2006,42.8100,-1.6514,449,Urban
ES1488A,2214880,IZKI,AirBase,ES,BERNEDO,01/01/2005,12/31/2006,42.6500,-2.5014,833,Rural
ES1489A,2214890,VALDEREJO,AirBase,ES,VALDEGOVIA,01/01/2005,12/31/2006,42.8767,-3.2314,911,Rural
ES1491A,2214910,MUNDAKA,AirBase,ES,MUNDAKA,01/01/2005,12/31/2006,43.4100,-2.7039,116,Rural
ES1516A,2215160,RIO SAN PEDRO,AirBase,ES,PUERTO REAL,01/01/2005,12/31/2006,36.5267,-6.2239,1,Urban
ES1529A,2215290,TETUAN,AirBase,ES,SANTANDER,01/01/2005,12/31/2006,43.4667,-3.7894,68,Urban
ES1530A,2215300,REINOSA,AirBase,ES,REINOSA,01/01/2005,12/31/2006,43.0000,-4.1364,850,Urban
ES1531A,2215310,LOS TOJOS,AirBase,ES,TOJOS (LOS),01/01/2005,12/31/2006,43.1500,-4.2531,651,Rural
ES1535A,2215350,ALBACETE,AirBase,ES,ALBACETE,01/01/2005,12/31/2006,38.9867,-1.9567,686,Suburban
ES1536A,2215360,AZUQUECA DE HENARES,AirBase,ES,AZUQUECA DE HENARES,01/01/2005,12/31/2006,40.5767,-3.2633,662,Suburban
ES1537A,2215370,GUADALAJARA,AirBase,ES,GUADALAJARA,01/01/2005,12/31/2006,40.6267,-3.1717,700,Urban
ES1542A,2215420,SANT JORDI,AirBase,ES,SAN JORGE,01/01/2005,12/31/2006,40.5500,0.3728,181,Rural
ES1543A,2215430,ZORITA,AirBase,ES,ZORITA DEL MAESTRAZGO,01/01/2005,12/31/2006,40.7333,-0.1694,619,Rural
ES1544A,2215440,AGURAIN,AirBase,ES,SALVATIERRA O AGURAIN,01/01/2005,12/31/2006,42.8533,-2.4772,594,Suburban
ES1549A,2215490,EL EJIDO,AirBase,ES,EJIDO (EL),01/01/2005,12/31/2006,36.7767,-2.8158,97,Urban
ES1551A,2215510,B9-BARBERA DEL VALLeS,AirBase,ES,BARBERA DEL VALLeS,01/01/2005,12/31/2006,41.5100,2.1267,98,Urban
ES1568A,2215680,MOSTOLES,AirBase,ES,MOSTOLES,01/01/2005,12/31/2006,40.3267,-3.8764,660,Urban
ES1572A,2215720,PURIFICACION TOMAS,AirBase,ES,OVIEDO,01/01/2005,12/31/2006,43.3767,-5.8728,286,Suburban
ES1578A,2215780,CASTRO URDALES,AirBase,ES,CASTRO-URDIALES,01/01/2005,12/31/2006,43.3867,-3.2206,20,Urban
ES1579A,2215790,LOS CORRALES DE BUELNA,AirBase,ES,CORRALES DE BUELNA (LOS),01/01/2005,12/31/2006,43.2600,-4.0628,88,Urban
ES1593A,2215930,SAN FERNANDO,AirBase,ES,SAN FERNANDO,01/01/2005,12/31/2006,36.4600,-6.2017,35,Suburban
ES1598A,2215980,ZALLA,AirBase,ES,ZALLA,01/01/2005,12/31/2006,43.2100,-3.1344,62,Urban
ES1599A,2215990,PAGOETA,AirBase,ES,AIA,01/01/2005,12/31/2006,43.2500,-2.1550,225,Rural
ES1601A,2216010,BADAJOZ,AirBase,ES,BADAJOZ,01/01/2005,12/31/2006,38.8833,-6.9708,390,Suburban
ES1602A,2216020,LA CIGuENA,AirBase,ES,LOGRONO,01/01/2005,12/31/2006,42.4600,-2.4278,386,Urban
ES1604A,2216040,CASTILLO DE BELLVER,AirBase,ES,PALMA DE MALLORCA,01/01/2005,12/31/2006,39.5600,2.6228,117,Suburban
ES1611A,2216110,ARANJUEZ,AirBase,ES,ARANJUEZ,01/01/2005,12/31/2006,40.0433,-3.5903,501,Urban
ES1612A,2216120,MAJADAHONDA,AirBase,ES,MAJADAHONDA,01/01/2005,12/31/2006,40.4433,-3.8672,730,Suburban
ES1615A,2216150,CACERES,AirBase,ES,CACERES,01/01/2005,12/31/2006,39.4767,-6.3603,389,Suburban
ES1616A,2216160,MONFRAGuE,AirBase,ES,TORIL,01/01/2005,12/31/2006,39.8533,-5.9397,376,Rural
ES1617A,2216170,ALZIRA,AirBase,ES,ALZIRA,01/01/2005,12/31/2006,39.1500,-0.4578,60,Suburban
ES1619A,2216190,VIVERS,AirBase,ES,VALENCIA,01/01/2005,12/31/2006,39.4767,-0.3683,11,Urban
ES1623A,2216230,VERGE DELS LLIRIS,AirBase,ES,ALCOY/ALCOI,01/01/2005,12/31/2006,38.7100,-0.4669,534,Urban
ES1625A,2216250,FACULTATS,AirBase,ES,BURJASSOT,01/01/2005,12/31/2006,39.5100,-0.4178,25,Urban
ES1630A,2216300,ALJARAFE,AirBase,ES,MAIRENA DEL ALJARAFE,01/01/2005,12/31/2006,37.3433,-6.0425,50,Suburban
ES1634A,2216340,E7:EL ZABAL,AirBase,ES,LINEA DE LA CONCEPCION (LA),01/01/2005,12/31/2006,36.1767,-5.3408,8,Urban
ES1635A,2216350,EL PLA,AirBase,ES,ALICANTE/ALACANT,01/01/2005,12/31/2006,38.3600,-0.4719,45,Urban
ES1638A,2216380,BERMEJALES,AirBase,ES,SEVILLA,01/01/2005,12/31/2006,37.3433,-5.9797,26,Urban
ES1640A,2216400,ALCALA DE GUADAIRA,AirBase,ES,ALCALA DE GUADAIRA,01/01/2005,12/31/2006,37.3433,-5.8333,68,Urban
ES1641A,2216410,RENOVALES,AirBase,ES,ZARAGOZA,01/01/2005,12/31/2006,41.6333,-0.8936,220,Urban
ES1648A,2216480,E2: ALCORNOCALES,AirBase,ES,BARRIOS (LOS),01/01/2005,12/31/2006,36.2333,-5.6625,189,Rural
ES1653A,2216530,DOS HERMANAS,AirBase,ES,DOS HERMANAS,01/01/2005,12/31/2006,37.2833,-5.9139,49,Urban
ES1654A,2216540,SIERRA NORTE,AirBase,ES,SAN NICOLAS DEL PUERTO,01/01/2005,12/31/2006,37.9933,-5.6664,573,Rural
ES1656A,2216560,RONDA DEL VALLE,AirBase,ES,JAeN,01/01/2005,12/31/2006,37.7833,-3.7808,480,Urban
ES1657A,2216570,MARBELLA,AirBase,ES,MARBELLA,01/01/2005,12/31/2006,36.5000,-4.9778,39,Suburban
ES1660A,2216600,CTCC-ARGUEDAS,AirBase,ES,ARGUEDAS,01/01/2005,12/31/2006,42.2100,-1.5856,475,Rural
ES1661A,2216610,CTCC-TUDELA,AirBase,ES,TUDELA,01/01/2005,12/31/2006,42.0767,-1.6269,383,Rural
ES1662A,2216620,CTCC-FUNES,AirBase,ES,FUNES,01/01/2005,12/31/2006,42.3100,-1.8083,460,Rural
ES1666A,2216660,BE-TARRAGONA (PARC DE LA CIUTAT),AirBase,ES,TARRAGONA,01/01/2005,12/31/2006,41.1167,1.2428,14,Urban
ES1674A,2216740,PARQUE SAN MARTMN,AirBase,ES,VITORIA-GASTEIZ,01/01/2005,12/31/2006,42.8433,-2.6886,453,Urban
ES1684A,2216840,BF-RUBI(CA N ORIOL),AirBase,ES,RUBI,01/01/2005,12/31/2006,41.4933,2.0436,200,Suburban
ES1685A,2216850,ALCORA,AirBase,ES,ALCORA,01/01/2005,12/31/2006,40.0500,-0.1897,160,Urban
ES1688A,2216880,BURRIANA,AirBase,ES,BURRIANA,01/01/2005,12/31/2006,39.8933,-0.0650,37,Rural
ES1696A,2216960,PUYO,AirBase,ES,DONOSTIA-SAN SEBASTIAN,01/01/2005,12/31/2006,43.3000,-1.9844,88,Urban
ES1713A,2217130,PARQUE EUROPA,AirBase,ES,BILBAO,01/01/2005,12/31/2006,43.2600,-2.9022,76,Urban
ES1716A,2217160,DONANA,AirBase,ES,ALMONTE,01/01/2005,12/31/2006,37.2833,-6.4400,96,Rural
ES1747A,2217470,ROTXAPEA,AirBase,ES,PAMPLONA/IRUNA,01/01/2005,12/31/2006,42.8267,-1.6494,418,Urban
ES1749A,2217490,ALSASUA,AirBase,ES,ALTSASU/ALSASUA,01/01/2005,12/31/2006,42.8933,-2.1658,530,Suburban
ES1750A,2217500,CARRANQUE,AirBase,ES,MALAGA,01/01/2005,12/31/2006,36.7167,-4.4461,36,Urban
ES1751A,2217510,EL ATABAL,AirBase,ES,MALAGA,01/01/2005,12/31/2006,36.7367,-4.4650,86,Suburban
ES1752A,2217520,TORREJON DE ARDOZ II,AirBase,ES,TORREJON DE ARDOZ,01/01/2005,12/31/2006,40.4600,-3.4842,597,Urban
ES1765A,2217650,SAGUNT-NORD,AirBase,ES,SAGUNTO/SAGUNT,01/01/2005,12/31/2006,39.6833,-0.2789,54,Suburban
ES1774A,2217740,BH-TONA,AirBase,ES,TONA,01/01/2005,12/31/2006,41.8333,2.2158,629,Rural
ES1778A,2217780,MONTSENY (LA CASTANYA),AirBase,ES,MONTSENY,01/01/2005,12/31/2006,41.7600,2.5833,528,Rural
ES1781A,2217810,JEREZ-CHAPMN,AirBase,ES,JEREZ DE LA FRONTERA,01/01/2005,12/31/2006,36.6933,-6.1183,62,Urban
ES1782A,2217820,BARCELONA (C/LLUMS SOLE I SABARI),AirBase,ES,BARCELONA,01/01/2005,12/31/2006,41.3833,2.1192,55,Urban
ES1786A,2217860,EL BOTICARIO,AirBase,ES,ALMERIA,01/01/2005,12/31/2006,36.8700,-2.3892,55,Suburban
ES1788A,2217880,IM-GAVA,AirBase,ES,GAVA,01/01/2005,12/31/2006,41.3000,1.9928,35,Suburban
ES1796A,2217960,PASEOS UNIVERSITARIOS,AirBase,ES,GRANADA,01/01/2005,12/31/2006,37.1833,-3.6075,685,Urban
ES1799A,2217990,LEPANTO,AirBase,ES,CORDOBA,01/01/2005,12/31/2006,37.8933,-4.7617,119,Urban
ES1800A,2218000,ASOMADILLA,AirBase,ES,CORDOBA,01/01/2005,12/31/2006,37.9000,-4.7828,152,Suburban
ES1815A,2218150,EB-VILAFRANCA DEL PENEDeS,AirBase,ES,VILAFRANCA DEL PENEDeS,01/01/2005,12/31/2006,41.3533,1.6878,200,Suburban
ES1816A,2218160,EC-MATARO,AirBase,ES,MATARO,01/01/2005,12/31/2006,41.5533,2.4444,40,Urban
ES1818A,2218180,TOLEDO2,AirBase,ES,TOLEDO,01/01/2005,12/31/2006,39.8667,-4.0208,500,Suburban
ES1823A,2218230,CAMPUS DE CARTUJA,AirBase,ES,GRANADA,01/01/2005,12/31/2006,37.1933,-3.5945,760,Suburban
ES1825A,2218250,SANT ANTONI DE PORTMANY,AirBase,ES,SANT ANTONI DE PORTMANY,01/01/2005,12/31/2006,38.9933,1.3100,65,Suburban
ES1826A,2218260,PATERNA-CEAM,AirBase,ES,PATERNA,01/01/2005,12/31/2006,39.5500,-0.4608,122,Suburban
ES1828A,2218280,CIUTADELLA DE MENORCA,AirBase,ES,CIUTADELLA DE MENORCA,01/01/2005,12/31/2006,40.0100,3.8575,30,Suburban
ES1846A,2218460,BURGOS5,AirBase,ES,BURGOS,01/01/2005,12/31/2006,42.3433,-3.7211,929,Urban
FI00066,700066,Kisapuisto,AirBase,FI,LAHTI,01/01/2005,12/31/2006,60.9833,25.6528,89,Urban
FI00208,700208,Luukki,AirBase,FI,ESPOO,01/01/2005,12/31/2006,60.3100,24.6894,64,Rural
FI00349,700349,Uto,AirBase,FI,Uto,01/01/2005,12/31/2006,59.7767,21.3739,7,Rural
FI00351,700351,Virolahti,AirBase,FI,Virolahti,01/01/2005,12/31/2006,60.5267,27.6714,4,Rural
FI00352,700352,Oulanka,AirBase,FI,Oulanka,01/01/2005,12/31/2006,66.3267,29.4017,310,Rural
FI00356,700356,Sammaltunturi,AirBase,FI,Sammaltunturi,01/01/2005,12/31/2006,67.9667,24.1122,566,Rural
FI00357,700357,Raja-Jooseppi,AirBase,FI,Raja-Jooseppi,01/01/2005,12/31/2006,68.4767,28.3031,262,Rural
FI00363,700363,Kasarmipuisto,AirBase,FI,KUOPIO,01/01/2005,12/31/2006,62.8933,27.6700,112,Urban
FI00372,700372,ahtari 2,AirBase,FI,ahtari,01/01/2005,12/31/2006,62.5933,24.1920,180,Rural
FI00424,700424,Mansikkala,AirBase,FI,IMATRA,01/01/2005,12/31/2006,61.1933,28.7706,75,Suburban
FI00425,700425,Kallio 2,AirBase,FI,HELSINKI,01/01/2005,12/31/2006,60.1833,24.9506,21,Urban
FI00431,700431,Palokka 2,AirBase,FI,JYVaSKYLa,01/01/2005,12/31/2006,62.2933,25.7092,143,Suburban
FI00582,700582,Lohjan keskusta,AirBase,FI,LOHJA,01/01/2005,12/31/2006,60.2500,24.0628,101,Urban
FR01001,801001,Longlaville-Ecole,AirBase,FR,Longlaville-Ecole,01/01/2005,12/31/2006,49.5333,5.8045,265,Suburban
FR01004,801004,Distroff,AirBase,FR,Distroff,01/01/2005,12/31/2006,49.3367,6.2717,223,Rural
FR01008,801008,Moyeuvre-Grande,AirBase,FR,Moyeuvre-Grande,01/01/2005,12/31/2006,49.2600,6.0508,300,Rural
FR01012,801012,Metz-Borny,AirBase,FR,Metz-Borny,01/01/2005,12/31/2006,49.1100,6.2233,204,Suburban
FR01015,801015,Blenod-les-PAM,AirBase,FR,Blenod-les-PAM,01/01/2005,12/31/2006,48.8833,6.0514,186,Suburban
FR01019,801019,Thionville-Piscine,AirBase,FR,Thionville-Piscine,01/01/2005,12/31/2006,49.3667,6.1608,156,Suburban
FR01020,801020,Thionville-Centre,AirBase,FR,Thionville-Centre,01/01/2005,12/31/2006,49.3600,6.1569,154,Suburban
FR01021,801021,Thionville-Garche,AirBase,FR,Thionville-Garche,01/01/2005,12/31/2006,49.3933,6.2014,151,Suburban
FR02005,802005,Martigues IIle,AirBase,FR,Martigues lIle,01/01/2005,12/31/2006,43.4100,5.0645,1,Rural
FR02008,802008,Port de Bouc Leque,AirBase,FR,Port de Bouc Leque,01/01/2005,12/31/2006,43.4000,4.9822,1,Suburban
FR02012,802012,Istres,AirBase,FR,Istres,01/01/2005,12/31/2006,43.5100,4.9828,10,Rural
FR02013,802013,Fos Les Carabins,AirBase,FR,Fos Les Carabins,01/01/2005,12/31/2006,43.4600,4.9342,5,Suburban
FR02016,802016,Salon de Provence,AirBase,FR,Salon de Provence,01/01/2005,12/31/2006,43.6333,5.0920,75,Urban
FR02022,802022,Arles,AirBase,FR,Arles,01/01/2005,12/31/2006,43.6767,4.6286,15,Urban
FR02026,802026,Miramas Centre Ville,AirBase,FR,Miramas Centre Ville,01/01/2005,12/31/2006,43.5833,5.0064,10,Urban
FR02031,802031,Marignane Ville,AirBase,FR,Marignane Ville,01/01/2005,12/31/2006,43.4167,5.2128,10,Urban
FR02037,802037,Port de Bouc EDF,AirBase,FR,Port de Bouc EDF,01/01/2005,12/31/2006,43.4267,4.9854,25,Rural
FR03014,803014,MARSEILLE_SAINTLOUIS,AirBase,FR,MARSEILLE_SAINTLOUIS,01/01/2005,12/31/2006,43.3433,5.3607,64,Suburban
FR03019,803019,LES PENNES MIRABEAU,AirBase,FR,LES PENNES MIRABEAU,01/01/2005,12/31/2006,43.4100,5.3202,140,Suburban
FR03028,803028,AUBAGNE_EST PENITENT,AirBase,FR,AUBAGNE_EST PENITENT,01/01/2005,12/31/2006,43.2933,5.5731,122,Suburban
FR03029,803029,AIX_ECOLE ART,AirBase,FR,AIX_ECOLE ART,01/01/2005,12/31/2006,43.5267,5.4414,188,Urban
FR03036,803036,AIX_OUEST BOUFFAN,AirBase,FR,AIX_OUEST BOUFFAN,01/01/2005,12/31/2006,43.5267,5.4148,294,Suburban
FR03037,803037,PENNE SUR HUVEAUNE,AirBase,FR,PENNE SUR HUVEAUNE,01/01/2005,12/31/2006,43.2867,5.5121,72,Suburban
FR03043,803043,MARSEILLE_CINQAVENUE,AirBase,FR,MARSEILLE_CINQAVENUE,01/01/2005,12/31/2006,43.3100,5.3958,64,Suburban
FR03047,803047,MARSEILLE_THIERS,AirBase,FR,MARSEILLE_THIERS,01/01/2005,12/31/2006,43.2933,5.3836,20,Urban
FR03062,803062,TOULON_CHALUCET,AirBase,FR,TOULON_CHALUCET,01/01/2005,12/31/2006,43.1267,5.9277,15,Urban
FR03063,803063,TOULON_ARSENAL,AirBase,FR,TOULON_ARSENAL,01/01/2005,12/31/2006,43.1267,5.9293,2,Urban
FR03069,803069,HYERES,AirBase,FR,HYERES,01/01/2005,12/31/2006,43.1167,6.1318,33,Urban
FR03080,803080,AVIGNON_MAIRIE,AirBase,FR,AVIGNON_MAIRIE,01/01/2005,12/31/2006,43.9533,4.8051,16,Urban
FR03081,803081,AVIGNON_ARROUSAIRE,AirBase,FR,AVIGNON_ARROUSAIRE,01/01/2005,12/31/2006,43.9333,4.8142,20,Suburban
FR03084,803084,LE PONTET,AirBase,FR,LE PONTET,01/01/2005,12/31/2006,43.9600,4.8572,22,Suburban
FR04002,804002,GENNEVILLIERS,AirBase,FR,GENNEVILLIERS,01/01/2005,12/31/2006,48.9267,2.2947,28,Urban
FR04018,804018,AUBERVILLIERS,AirBase,FR,AUBERVILLIERS,01/01/2005,12/31/2006,48.9000,2.3853,42,Urban
FR04023,804023,Cergy pontoise 95,AirBase,FR,Cergy,01/01/2005,12/31/2006,49.0433,2.0431,85,Urban
FR04034,804034,VITRY-SUR-SEINE,AirBase,FR,VITRY-SUR-SEINE,01/01/2005,12/31/2006,48.7767,2.3772,95,Suburban
FR04038,804038,Rur S-O/Foret RAMB,AirBase,FR,Rur S-O/Foret RAMB,01/01/2005,12/31/2006,48.5867,1.8833,152,Rural
FR04055,804055,PARIS 1er Les Halles,AirBase,FR,PARIS 1er Les Halles,01/01/2005,12/31/2006,48.8600,2.3458,35,Urban
FR04063,804063,MANTES-LA-JOLIE,AirBase,FR,MANTES-LA-JOLIE,01/01/2005,12/31/2006,48.9933,1.7036,32,Urban
FR04069,804069,MELUN,AirBase,FR,MELUN,01/01/2005,12/31/2006,48.5433,2.6614,56,Urban
FR04098,804098,LOGNES,AirBase,FR,LOGNES,01/01/2005,12/31/2006,48.8433,2.6353,80,Urban
FR04100,804100,VILLEMOMBLE,AirBase,FR,VILLEMOMBLE,01/01/2005,12/31/2006,48.8867,2.5072,85,Urban
FR04101,804101,CHAMPIGNY-SUR-MARNE,AirBase,FR,CHAMPIGNY-SUR-MARNE,01/01/2005,12/31/2006,48.8200,2.5175,74,Urban
FR04145,804145,GARCHES,AirBase,FR,GARCHES,01/01/2005,12/31/2006,48.8433,2.1895,134,Suburban
FR04149,804149,MONTGERON,AirBase,FR,MONTGERON,01/01/2005,12/31/2006,48.7100,2.4556,68,Suburban
FR04150,804150,LA DEFENSE,AirBase,FR,LA DEFENSE,01/01/2005,12/31/2006,48.8933,2.2406,58,Suburban
FR04319,804319,TREMBLAY-EN-FRANCE,AirBase,FR,TREMBLAY-EN-FRANCE,01/01/2005,12/31/2006,48.9600,2.5753,65,Suburban
FR04322,804322,rur O PRUNAY-TEMPLE,AirBase,FR,rur O PRUNAY-TEMPLE,01/01/2005,12/31/2006,48.8600,1.6761,98,Rural
FR04328,804328,rur S-E -Foret FONT,AirBase,FR,rur S-E -Foret FONT,01/01/2005,12/31/2006,48.3500,2.6467,127,Rural
FR05010,805010,St Romain de Colbosc,AirBase,FR,St Romain de Colbosc,01/01/2005,12/31/2006,49.5267,0.3587,117,Suburban
FR05053,805053,Foret Brotonne,AirBase,FR,Foret Brotonne,01/01/2005,12/31/2006,49.4100,0.6924,115,Rural
FR05064,805064,Le Havre Mare Rouge,AirBase,FR,Le Havre Mare Rouge,01/01/2005,12/31/2006,49.5167,0.1111,100,Suburban
FR05070,805070,Harfleur Ecole Coty,AirBase,FR,Harfleur Ecole Coty,01/01/2005,12/31/2006,49.5100,0.2017,15,Rural
FR05074,805074,Le Havre Ec. Herriot,AirBase,FR,Le Havre Ec. Herriot,01/01/2005,12/31/2006,49.4933,0.1007,5,Urban
FR05078,805078,Le Havre Massillon,AirBase,FR,Le Havre Massillon,01/01/2005,12/31/2006,49.4933,0.1427,3,Urban
FR05079,805079,Montivilliers,AirBase,FR,Montivilliers,01/01/2005,12/31/2006,49.5433,0.1854,20,Suburban
FR06001,806001,Valenciennes Acacia,AirBase,FR,Valenciennes Acacia,01/01/2005,12/31/2006,50.3433,3.5086,33,Urban
FR06003,806003,Douai Theuriet,AirBase,FR,Douai Theuriet,01/01/2005,12/31/2006,50.3700,3.0828,26,Urban
FR06004,806004,St Amand Bracke,AirBase,FR,St Amand Bracke,01/01/2005,12/31/2006,50.4333,3.4431,26,Urban
FR06007,806007,Maubeuge Joyeuse,AirBase,FR,Maubeuge Joyeuse,01/01/2005,12/31/2006,50.2767,3.9736,107,Urban
FR06008,806008,Guesnain Barrand,AirBase,FR,Guesnain Barrand,01/01/2005,12/31/2006,50.3500,3.1456,113,Suburban
FR06009,806009,Cambrai Gambetta,AirBase,FR,Cambrai Gambetta,01/01/2005,12/31/2006,50.1767,3.2342,100,Urban
FR06010,806010,Waziers Rolland,AirBase,FR,Waziers Rolland,01/01/2005,12/31/2006,50.3833,3.1178,80,Urban
FR06011,806011,Denain Villars,AirBase,FR,Denain Villars,01/01/2005,12/31/2006,50.3267,3.4000,80,Urban
FR06012,806012,Haumont Ronsard,AirBase,FR,Haumont Ronsard,01/01/2005,12/31/2006,50.2767,3.9775,107,Suburban
FR07004,807004,Montferrand,AirBase,FR,Montferrand,01/01/2005,12/31/2006,45.7933,3.1138,340,Suburban
FR07009,807009,Jardin Lecoq,AirBase,FR,Jardin Lecoq,01/01/2005,12/31/2006,45.7767,3.0875,398,Urban
FR07012,807012,Le Puy Centre,AirBase,FR,Le Puy Centre,01/01/2005,12/31/2006,45.0433,3.8827,644,Urban
FR07013,807013,Montlucon Chateau,AirBase,FR,Montlucon Chateau,01/01/2005,12/31/2006,46.3433,2.6046,215,Urban
FR07017,807017,Aurillac Mairie,AirBase,FR,Aurillac Mairie,01/01/2005,12/31/2006,44.9267,2.4452,641,Urban
FR07019,807019,Issoire Centre,AirBase,FR,Issoire Centre,01/01/2005,12/31/2006,45.5433,3.2489,390,Urban
FR07032,807032,Riom,AirBase,FR,Riom,01/01/2005,12/31/2006,45.8933,3.1151,340,Suburban
FR08003,808003,Chaptal,AirBase,FR,Chaptal,01/01/2005,12/31/2006,43.6100,3.8647,10,Urban
FR08005,808005,Les Cevennes,AirBase,FR,Les Cevennes,01/01/2005,12/31/2006,43.6167,3.8439,40,Rural
FR08016,808016,Pres Arenes,AirBase,FR,Pres Arenes,01/01/2005,12/31/2006,43.5933,3.8873,8,Urban
FR08614,808614,Gauzy,AirBase,FR,Gauzy,01/01/2005,12/31/2006,43.8333,4.3743,40,Suburban
FR08615,808615,Bruguier,AirBase,FR,Bruguier,01/01/2005,12/31/2006,43.8433,4.3889,45,Urban
FR08713,808713,Rigaud,AirBase,FR,Rigaud,01/01/2005,12/31/2006,42.6667,2.8964,50,Urban
FR08714,808714,Les Carmes,AirBase,FR,Les Carmes,01/01/2005,12/31/2006,42.7267,2.9014,25,Urban
FR09002,809002,VAUGOIN,AirBase,FR,VAUGOIN,01/01/2005,12/31/2006,46.1600,-1.1863,13,Urban
FR09003,809003,place de VERDUN,AirBase,FR,place de VERDUN,01/01/2005,12/31/2006,46.1600,-1.1536,10,Urban
FR09008,809008,AYTRE,AirBase,FR,AYTRE,01/01/2005,12/31/2006,46.1333,-1.1170,10,Suburban
FR09009,809009,Place du Marche,AirBase,FR,Place du Marche,01/01/2005,12/31/2006,46.5867,0.3449,112,Urban
FR09010,809010,Chasseneuil,AirBase,FR,Chasseneuil,01/01/2005,12/31/2006,46.6600,0.3762,74,Urban
FR09014,809014,LIsle dEspagnac,AirBase,FR,LIsle dEspagnac,01/01/2005,12/31/2006,45.6600,0.1975,55,Urban
FR09015,809015,Les Couronneries,AirBase,FR,Les Couronneries,01/01/2005,12/31/2006,46.5833,0.3586,119,Urban
FR09016,809016,La Couronne,AirBase,FR,La Couronne,01/01/2005,12/31/2006,45.6100,0.0997,51,Urban
FR09017,809017,COGNAC,AirBase,FR,COGNAC,01/01/2005,12/31/2006,45.6933,-0.3234,29,Suburban
FR09019,809019,Ecole Jules Ferry,AirBase,FR,Ecole Jules Ferry,01/01/2005,12/31/2006,46.3267,-0.4589,65,Urban
FR09020,809020,Ecole Jean Zay,AirBase,FR,Ecole Jean Zay,01/01/2005,12/31/2006,46.3167,-0.4782,25,Suburban
FR09103,809103,Square Pablo Casals,AirBase,FR,Square Pablo Casals,01/01/2005,12/31/2006,45.6433,0.1672,83,Urban
FR10007,810007,St Pol/mer Nord,AirBase,FR,St Pol/mer Nord,01/01/2005,12/31/2006,51.0367,2.3356,3,Suburban
FR10009,810009,Petite-Synthe,AirBase,FR,Petite-Synthe,01/01/2005,12/31/2006,51.0100,2.3258,2,Urban
FR10011,810011,Grande-Synthe,AirBase,FR,Grande-Synthe,01/01/2005,12/31/2006,51.0100,2.2931,5,Suburban
FR10015,810015,Gravelines DRIRE,AirBase,FR,Gravelines DRIRE,01/01/2005,12/31/2006,50.9767,2.1425,6,Suburban
FR10025,810025,Sangatte,AirBase,FR,Sangatte,01/01/2005,12/31/2006,50.9433,1.8564,20,Suburban
FR10032,810032,Outreau,AirBase,FR,Outreau,01/01/2005,12/31/2006,50.6933,1.5764,15,Suburban
FR10041,810041,St Omer Ribot,AirBase,FR,St Omer Ribot,01/01/2005,12/31/2006,50.7533,2.2547,16,Suburban
FR11016,811016,Marcq CTM,AirBase,FR,Marcq CTM,01/01/2005,12/31/2006,50.6667,3.0777,17,Suburban
FR11022,811022,Armentieres Centre,AirBase,FR,Armentieres Centre,01/01/2005,12/31/2006,50.6933,2.8852,13,Urban
FR11024,811024,Lille Faidherbe,AirBase,FR,Lille Faidherbe,01/01/2005,12/31/2006,50.6200,3.0840,30,Suburban
FR11026,811026,Halluin Cailloux,AirBase,FR,Halluin Cailloux,01/01/2005,12/31/2006,50.7767,3.1437,36,Rural
FR11027,811027,Tourcoing Centre,AirBase,FR,Tourcoing Centre,01/01/2005,12/31/2006,50.7267,3.1600,40,Urban
FR11030,811030,Salome Ecoles,AirBase,FR,Salome Ecoles,01/01/2005,12/31/2006,50.5367,2.8400,10,Rural
FR11033,811033,Lesquin Centre,AirBase,FR,Lesquin Centre,01/01/2005,12/31/2006,50.5933,3.1172,10,Suburban
FR12001,812001,COLOMIERS,AirBase,FR,COLOMIERS,01/01/2005,12/31/2006,43.6167,1.3475,154,Suburban
FR12004,812004,ECOLE M.JACQUIER,AirBase,FR,ECOLE M.JACQUIER,01/01/2005,12/31/2006,43.5767,1.4186,143,Suburban
FR12017,812017,CANTEPAU ALBI,AirBase,FR,CANTEPAU ALBI,01/01/2005,12/31/2006,43.9267,2.1567,165,Suburban
FR12020,812020,PEYRUSSE,AirBase,FR,PEYRUSSE,01/01/2005,12/31/2006,43.6267,0.1797,175,Rural
FR12021,812021,MAZADES,AirBase,FR,MAZADES,01/01/2005,12/31/2006,43.6267,1.4386,139,Suburban
FR12025,812025,VICTOR HUGO,AirBase,FR,VICTOR HUGO,01/01/2005,12/31/2006,43.2333,0.0675,305,Urban
FR12026,812026,ALBI DELMAS,AirBase,FR,ALBI DELMAS,01/01/2005,12/31/2006,43.9267,2.1461,165,Urban
FR12027,812027,PAUL BERT TARBES,AirBase,FR,PAUL BERT TARBES,01/01/2005,12/31/2006,43.2267,0.0760,311,Urban
FR12030,812030,BERTHELOT,AirBase,FR,BERTHELOT,01/01/2005,12/31/2006,43.5833,1.4439,150,Suburban
FR12031,812031,BELESTA EN LAURAGAIS,AirBase,FR,BELESTA EN LAURAGAIS,01/01/2005,12/31/2006,43.4433,1.8220,260,Rural
FR12034,812034,HOPITAL CASTRES,AirBase,FR,HOPITAL CASTRES,01/01/2005,12/31/2006,43.6000,2.2411,520,Urban
FR12042,812042,LOURDES LAPACCA,AirBase,FR,LOURDES LAPACCA,01/01/2005,12/31/2006,43.0933,-0.0389,405,Urban
FR12043,812043,Aeroport cote piste,AirBase,FR,Aeroport cote piste,01/01/2005,12/31/2006,43.6267,1.3817,150,Suburban
FR13002,813002,MONTBELIARD Coteau J,AirBase,FR,MONTBELIARD Coteau J,01/01/2005,12/31/2006,47.5000,6.7881,343,Suburban
FR13004,813004,SOCHAUX Ateliers,AirBase,FR,SOCHAUX Ateliers,01/01/2005,12/31/2006,47.5200,6.8289,319,Suburban
FR13007,813007,MONTBELIARD Centre,AirBase,FR,MONTBELIARD Centre,01/01/2005,12/31/2006,47.5100,6.7958,320,Suburban
FR13008,813008,VALDOIE Centre,AirBase,FR,VALDOIE Centre,01/01/2005,12/31/2006,47.6700,6.8397,372,Suburban
FR13014,813014,VESOUL Pres CAILLET,AirBase,FR,VESOUL Pres CAILLET,01/01/2005,12/31/2006,47.6167,6.1575,217,Urban
FR14001,814001,CERNAY Baie locale,AirBase,FR,CERNAY Baie locale,01/01/2005,12/31/2006,49.2600,4.0561,90,Urban
FR14002,814002,MURIGNY,AirBase,FR,MURIGNY,01/01/2005,12/31/2006,49.2267,4.0217,90,Urban
FR14003,814003,COURAUX,AirBase,FR,COURAUX,01/01/2005,12/31/2006,49.2333,4.0506,90,Suburban
FR14004,814004,MAIRIE REIMS,AirBase,FR,MAIRIE REIMS,01/01/2005,12/31/2006,49.2600,4.0311,90,Urban
FR14009,814009,TINQUEUX,AirBase,FR,TINQUEUX,01/01/2005,12/31/2006,49.2433,3.9928,90,Urban
FR14010,814010,BETHENY,AirBase,FR,BETHENY,01/01/2005,12/31/2006,49.2867,4.0508,90,Urban
FR14021,814021,ST MEMMIE,AirBase,FR,ST MEMMIE,01/01/2005,12/31/2006,48.9500,4.3825,90,Urban
FR14031,814031,LA TOUR,AirBase,FR,LA TOUR,01/01/2005,12/31/2006,48.3000,4.0778,105,Urban
FR14033,814033,STE SAVINE,AirBase,FR,STE SAVINE,01/01/2005,12/31/2006,48.2933,4.0506,110,Urban
FR14049,814049,ST DIZIER Observ.,AirBase,FR,ST DIZIER Observ.,01/01/2005,12/31/2006,48.6433,4.9775,150,Urban
FR15001,815001,Charavines,AirBase,FR,Charavines,01/01/2005,12/31/2006,45.4267,5.5180,491,Rural
FR15007,815007,Versoud,AirBase,FR,Versoud,01/01/2005,12/31/2006,45.2167,5.8503,216,Rural
FR15013,815013,Champ sur Drac,AirBase,FR,Champ sur Drac,01/01/2005,12/31/2006,45.0767,5.7287,267,Suburban
FR15017,815017,Fontaine Les Balmes,AirBase,FR,Fontaine Les Balmes,01/01/2005,12/31/2006,45.1933,5.6870,210,Urban
FR15038,815038,St Martin dHeres,AirBase,FR,St Martin dHeres,01/01/2005,12/31/2006,45.1867,5.7532,219,Urban
FR15043,815043,Grenoble Les Frenes,AirBase,FR,Grenoble Les Frenes,01/01/2005,12/31/2006,45.1600,5.7357,214,Suburban
FR15044,815044,Voreppe Volouise,AirBase,FR,Voreppe Volouise,01/01/2005,12/31/2006,45.2867,5.6385,191,Suburban
FR16001,816001,STG Ouest,AirBase,FR,STG Ouest,01/01/2005,12/31/2006,48.6100,7.7100,148,Suburban
FR16017,816017,Nord-Est Alsace,AirBase,FR,Nord-Est Alsace,01/01/2005,12/31/2006,48.9167,8.1584,114,Suburban
FR16027,816027,STG Centre,AirBase,FR,STG Centre,01/01/2005,12/31/2006,48.5833,7.7470,140,Urban
FR16029,816029,STG Nord,AirBase,FR,STG Nord,01/01/2005,12/31/2006,48.6100,7.7816,136,Suburban
FR16031,816031,Vosges du Nord,AirBase,FR,Vosges du Nord,01/01/2005,12/31/2006,48.8600,7.3152,340,Rural
FR16032,816032,Hautes Vosges,AirBase,FR,Hautes Vosges,01/01/2005,12/31/2006,48.2167,7.1968,1107,Rural
FR16037,816037,STG Centre 2,AirBase,FR,STG Centre ,01/01/2005,12/31/2006,48.5767,7.7439,139,Urban
FR16038,816038,STG Est,AirBase,FR,STG Est,01/01/2005,12/31/2006,48.5667,7.7831,139,Urban
FR16053,816053,Colmar Est,AirBase,FR,Colmar Est,01/01/2005,12/31/2006,48.0767,7.3624,188,Suburban
FR16054,816054,Colmar Centre,AirBase,FR,Colmar Centre,01/01/2005,12/31/2006,48.0767,7.3507,195,Urban
FR16056,816056,Mulhouse Centre,AirBase,FR,Mulhouse Centre,01/01/2005,12/31/2006,47.7533,7.3330,240,Suburban
FR16057,816057,Mulhouse Nord,AirBase,FR,Mulhouse Nord,01/01/2005,12/31/2006,47.7600,7.3472,236,Suburban
FR16065,816065,Mulhouse Est,AirBase,FR,Mulhouse Est,01/01/2005,12/31/2006,47.7267,7.3426,330,Suburban
FR16066,816066,Mulhouse Sud 2,AirBase,FR,Mulhouse Sud ,01/01/2005,12/31/2006,47.7333,7.3088,250,Urban
FR17001,817001,MEGEVAND,AirBase,FR,MEGEVAND,01/01/2005,12/31/2006,47.2333,6.0238,243,Urban
FR17002,817002,PALENTE,AirBase,FR,PALENTE,01/01/2005,12/31/2006,47.2600,6.0447,332,Urban
FR17004,817004,PLANOISE,AirBase,FR,PLANOISE,01/01/2005,12/31/2006,47.2267,5.9716,271,Urban
FR17009,817009,DOLE CENTRE,AirBase,FR,DOLE CENTRE,01/01/2005,12/31/2006,47.0933,5.4964,223,Urban
FR17014,817014,TAVAUX,AirBase,FR,TAVAUX,01/01/2005,12/31/2006,47.0433,5.4009,192,Suburban
FR17016,817016,LONS CV,AirBase,FR,LONS CV,01/01/2005,12/31/2006,46.6667,5.5567,261,Urban
FR18008,818008,P. Bert St Quentin,AirBase,FR,P. Bert St Quentin,01/01/2005,12/31/2006,49.8600,3.3072,111,Suburban
FR18019,818019,Nogent sur Oise,AirBase,FR,Nogent sur Oise,01/01/2005,12/31/2006,49.2767,2.4828,24,Rural
FR18032,818032,Desbordes Compiegne,AirBase,FR,Desbordes Compiegne,01/01/2005,12/31/2006,49.4000,2.8181,57,Suburban
FR18035,818035,Salouel,AirBase,FR,Salouel,01/01/2005,12/31/2006,49.8667,2.2406,29,Suburban
FR18039,818039,Arrest,AirBase,FR,Arrest,01/01/2005,12/31/2006,50.1267,1.6117,30,Rural
FR18042,818042,P. Roth St Quentin,AirBase,FR,P. Roth St Quentin,01/01/2005,12/31/2006,49.8500,3.2842,102,Urban
FR18043,818043,Faiencerie Creil,AirBase,FR,Faiencerie Creil,01/01/2005,12/31/2006,49.2600,2.4745,28,Urban
FR18044,818044,Saint Leu Amiens,AirBase,FR,Saint Leu Amiens,01/01/2005,12/31/2006,49.9033,2.2986,24,Urban
FR19001,819001,Brennilis,AirBase,FR,Brennilis,01/01/2005,12/31/2006,48.3600,-3.8702,220,Rural
FR19005,819005,Rennes Triangle,AirBase,FR,Rennes Triangle,01/01/2005,12/31/2006,48.0933,-1.6597,50,Suburban
FR19006,819006,Rennes ENSP,AirBase,FR,Rennes ENSP,01/01/2005,12/31/2006,48.1033,-1.7026,34,Suburban
FR19011,819011,Brest Nattier,AirBase,FR,Brest Nattier,01/01/2005,12/31/2006,48.4200,-4.4718,80,Urban
FR19012,819012,Brest Mace,AirBase,FR,Brest Mace,01/01/2005,12/31/2006,48.3833,-4.4868,48,Urban
FR19021,819021,Lorient CTM,AirBase,FR,Lorient CTM,01/01/2005,12/31/2006,47.7500,-3.3757,25,Urban
FR19031,819031,Vannes Roscanvec,AirBase,FR,Vannes Roscanvec,01/01/2005,12/31/2006,47.6600,-2.7582,30,Urban
FR19032,819032,Lorient B. Bissonnet,AirBase,FR,Lorient B. Bissonnet,01/01/2005,12/31/2006,47.7433,-3.3948,50,Urban
FR19051,819051,Quimper Ferry,AirBase,FR,Quimper Ferry,01/01/2005,12/31/2006,47.9933,-4.1041,40,Urban
FR19061,819061,Saint Brieuc Balzac,AirBase,FR,Saint Brieuc Balzac,01/01/2005,12/31/2006,48.5167,-2.7500,80,Urban
FR19071,819071,Morlaix Poan Ben,AirBase,FR,Morlaix Poan Ben,01/01/2005,12/31/2006,48.5767,-3.8239,23,Urban
FR19081,819081,StMalo Courtoisville,AirBase,FR,StMalo Courtoisville,01/01/2005,12/31/2006,48.6500,-1.9942,10,Urban
FR19091,819091,Fougeres DSTE,AirBase,FR,Fougeres DSTE,01/01/2005,12/31/2006,48.3433,-1.2023,110,Urban
FR20017,820017,GERLAND,AirBase,FR,GERLAND,01/01/2005,12/31/2006,45.7333,4.8298,172,Suburban
FR20037,820037,TERNAY,AirBase,FR,TERNAY,01/01/2005,12/31/2006,45.6000,4.8025,235,Suburban
FR20045,820045,GENAS,AirBase,FR,GENAS,01/01/2005,12/31/2006,45.7367,4.9806,235,Rural
FR20046,820046,VAULX EN VELIN,AirBase,FR,VAULX EN VELIN,01/01/2005,12/31/2006,45.7767,4.9249,156,Suburban
FR20048,820048,SAINT EXUPERY,AirBase,FR,SAINT EXUPERY,01/01/2005,12/31/2006,45.7500,5.0723,217,Suburban
FR20049,820049,HAUT BEAUJOLAIS,AirBase,FR,HAUT BEAUJOLAIS,01/01/2005,12/31/2006,45.9600,4.4657,540,Rural
FR20061,820061,VILLEFRANCHE Village,AirBase,FR,VILLEFRANCHE Village,01/01/2005,12/31/2006,45.9833,4.7193,204,Urban
FR21001,821001,Chemin Vert CAEN,AirBase,FR,Chemin Vert CAEN,01/01/2005,12/31/2006,49.1933,-0.3911,56,Suburban
FR21019,821019,IFS Caen sud,AirBase,FR,IFS Caen sud,01/01/2005,12/31/2006,49.1500,-0.3528,22,Rural
FR21021,821021,Lisieux,AirBase,FR,Lisieux,01/01/2005,12/31/2006,49.1433,0.2272,46,Urban
FR21030,821030,alencon promenades,AirBase,FR,alencon promenades,01/01/2005,12/31/2006,48.4267,0.0792,140,Urban
FR21035,821035,cherbourg doumer,AirBase,FR,cherbourg doumer,01/01/2005,12/31/2006,49.6333,-1.6267,18,Urban
FR21040,821040,SAINT LO EGLISE,AirBase,FR,SAINT LO EGLISE,01/01/2005,12/31/2006,49.1200,-1.0847,45,Urban
FR22012,822012,Forbach(12),AirBase,FR,Forbach,01/01/2005,12/31/2006,49.1833,6.9045,228,Rural
FR22015,822015,Sarreguemines(15),AirBase,FR,Sarreguemines,01/01/2005,12/31/2006,49.1100,7.0710,211,Suburban
FR22016,822016,Saint-Avold Centre,AirBase,FR,Saint-Avold Centre,01/01/2005,12/31/2006,49.1000,6.7038,229,Urban
FR22017,822017,Volmunster,AirBase,FR,Volmunster,01/01/2005,12/31/2006,49.1267,7.3818,349,Rural
FR22018,822018,DIEUZE (18),AirBase,FR,DIEUZE,01/01/2005,12/31/2006,48.8100,6.7211,217,Urban
FR23076,823076,JARDIN BOTANIQUE,AirBase,FR,JARDIN BOTANIQUE,01/01/2005,12/31/2006,47.2167,-1.5445,15,Suburban
FR23078,823078,SAINT EXUPERY,AirBase,FR,SAINT EXUPERY,01/01/2005,12/31/2006,47.0500,-0.8861,90,Suburban
FR23110,823110,LEON BLUM,AirBase,FR,LEON BLUM,01/01/2005,12/31/2006,47.2600,-2.2499,25,Urban
FR23113,823113,SQUARE DE LA GIRONDE,AirBase,FR,SQUARE DE LA GIRONDE,01/01/2005,12/31/2006,47.2100,-1.6151,40,Suburban
FR23120,823120,BEAUX ARTS,AirBase,FR,BEAUX ARTS,01/01/2005,12/31/2006,47.4667,-0.5561,47,Urban
FR23123,823123,MAZAGRAN,AirBase,FR,MAZAGRAN,01/01/2005,12/31/2006,48.0667,-0.7677,54,Urban
FR23124,823124,LA TARDIERE,AirBase,FR,LA TARDIERE,01/01/2005,12/31/2006,46.6600,-0.7437,143,Rural
FR23137,823137,RUE DES CORBIERES,AirBase,FR,RUE DES CORBIERES,01/01/2005,12/31/2006,47.2000,-1.4888,21,Urban
FR23150,823150,APPENTIS,AirBase,FR,APPENTIS,01/01/2005,12/31/2006,47.4433,-0.5501,33,Urban
FR23152,823152,DELACROIX,AirBase,FR,DELACROIX,01/01/2005,12/31/2006,46.6600,-1.4368,72,Urban
FR23174,823174,GUEDOU,AirBase,FR,GUEDOU,01/01/2005,12/31/2006,47.9933,0.1960,46,Urban
FR24007,824007,ANTIBES JEAN MOULIN,AirBase,FR,ANTIBES JEAN MOULIN,01/01/2005,12/31/2006,43.6033,7.0947,77,Urban
FR24015,824015,GRASSE CLAVECIN,AirBase,FR,GRASSE CLAVECIN,01/01/2005,12/31/2006,43.6600,6.9195,356,Urban
FR24018,824018,Manosque04,AirBase,FR,Manosque,01/01/2005,12/31/2006,43.8333,5.7859,371,Urban
FR24020,824020,Cagnes Ladoumegue,AirBase,FR,Cagnes Ladoumegue,01/01/2005,12/31/2006,43.6600,7.1578,21,Urban
FR25036,825036,Espace du Palais,AirBase,FR,Espace du Palais,01/01/2005,12/31/2006,49.4433,1.0937,17,Urban
FR25039,825039,Evreux Centre,AirBase,FR,Evreux Centre,01/01/2005,12/31/2006,49.0167,1.1483,65,Urban
FR25043,825043,Centre Hospitalier,AirBase,FR,Centre Hospitalier,01/01/2005,12/31/2006,49.4000,1.0988,11,Urban
FR25045,825045,Phare d Ailly,AirBase,FR,Phare d Ailly,01/01/2005,12/31/2006,49.9200,0.9572,80,Rural
FR26001,826001,Station PASTEUR,AirBase,FR,Station PASTEUR,01/01/2005,12/31/2006,47.3167,5.0414,240,Urban
FR26005,826005,Local Espaces verts,AirBase,FR,Local Espaces verts,01/01/2005,12/31/2006,47.3100,5.0661,255,Suburban
FR26010,826010,Station DAIX,AirBase,FR,Station DAIX,01/01/2005,12/31/2006,47.3500,4.9997,350,Suburban
FR26011,826011,Station MARSANNAY,AirBase,FR,Station MARSANNAY,01/01/2005,12/31/2006,47.2767,5.0064,240,Suburban
FR26016,826016,Station SENS,AirBase,FR,Station SENS,01/01/2005,12/31/2006,48.1933,3.2800,250,Urban
FR26017,826017,Station NEVERS ISAT,AirBase,FR,Station NEVERS ISAT,01/01/2005,12/31/2006,47.0000,3.1695,200,Urban
FR26019,826019,Station AUXERRE,AirBase,FR,Station AUXERRE,01/01/2005,12/31/2006,48.8000,3.5695,250,Urban
FR27002,827002,ROUSSILLON,AirBase,FR,ROUSSILLON,01/01/2005,12/31/2006,45.3667,4.8052,157,Suburban
FR27004,827004,Vienne Centre,AirBase,FR,Vienne Centre,01/01/2005,12/31/2006,45.5267,4.8754,160,Suburban
FR27005,827005,Sablons,AirBase,FR,Sablons,01/01/2005,12/31/2006,45.3167,4.7729,138,Rural
FR27007,827007,Bourgoin-Jallieu,AirBase,FR,Bourgoin-Jallieu,01/01/2005,12/31/2006,45.6100,5.2709,157,Suburban
FR28010,828010,Harnes Serres,AirBase,FR,Harnes Serres,01/01/2005,12/31/2006,50.4533,2.9000,20,Suburban
FR28014,828014,Bruay Ecole,AirBase,FR,Bruay Ecole,01/01/2005,12/31/2006,50.4767,2.5333,20,Urban
FR28018,828018,Arras Jaures,AirBase,FR,Arras Jaures,01/01/2005,12/31/2006,50.2767,2.7818,20,Suburban
FR28020,828020,Noeux S. Sports,AirBase,FR,Noeux S. Sports,01/01/2005,12/31/2006,50.4833,2.6613,20,Suburban
FR28028,828028,Bethune Stade,AirBase,FR,Bethune Stade,01/01/2005,12/31/2006,50.5167,2.6408,20,Urban
FR28030,828030,Henin Cimetiere,AirBase,FR,Henin Cimetiere,01/01/2005,12/31/2006,50.4267,2.9620,20,Urban
FR29421,829421,COUBERTIN,AirBase,FR,COUBERTIN,01/01/2005,12/31/2006,45.4667,4.3898,480,Urban
FR29423,829423,ROANNE,AirBase,FR,ROANNE,01/01/2005,12/31/2006,46.0433,4.0747,259,Urban
FR29424,829424,SAINT ETIENNE SUD,AirBase,FR,SAINT ETIENNE SUD,01/01/2005,12/31/2006,45.4167,4.3954,552,Urban
FR29425,829425,FIRMINY,AirBase,FR,FIRMINY,01/01/2005,12/31/2006,45.3833,4.2817,467,Urban
FR29426,829426,SAINT-CHAMOND,AirBase,FR,SAINT-CHAMOND,01/01/2005,12/31/2006,45.4767,4.5150,366,Urban
FR30018,830018,Remiremont,AirBase,FR,Remiremont,01/01/2005,12/31/2006,48.0267,6.5859,380,Suburban
FR30019,830019,Epinal,AirBase,FR,Epinal,01/01/2005,12/31/2006,48.1767,6.4528,325,Suburban
FR30020,830020,Bar Le Duc,AirBase,FR,Bar Le Duc,01/01/2005,12/31/2006,48.7767,5.1628,200,Urban
FR30021,830021,Fleville,AirBase,FR,Fleville,01/01/2005,12/31/2006,48.6167,6.1949,250,Suburban
FR30022,830022,Gerardmer,AirBase,FR,Gerardmer,01/01/2005,12/31/2006,48.0767,6.8728,660,Suburban
FR30028,830028,Schlucht,AirBase,FR,Schlucht,01/01/2005,12/31/2006,48.0500,7.0111,1200,Rural
FR30033,830033,Jonville en Woevre,AirBase,FR,Jonville en Woevre,01/01/2005,12/31/2006,49.0700,5.7856,225,Rural
FR30034,830034,Nancy-Charles III,AirBase,FR,Nancy-Charles III,01/01/2005,12/31/2006,48.6833,6.1904,200,Urban
FR31001,831001,GRAND PARC,AirBase,FR,GRAND PARC,01/01/2005,12/31/2006,44.8600,-0.5795,3,Urban
FR31002,831002,TALENCE,AirBase,FR,TALENCE,01/01/2005,12/31/2006,44.8000,-0.5881,20,Urban
FR31004,831004,FLOIRAC,AirBase,FR,FLOIRAC,01/01/2005,12/31/2006,44.8333,-0.5250,65,Urban
FR31007,831007,BASSENS,AirBase,FR,BASSENS,01/01/2005,12/31/2006,44.9000,-0.5147,36,Urban
FR31008,831008,LE TEMPLE,AirBase,FR,LE TEMPLE,01/01/2005,12/31/2006,44.8700,-0.9395,43,Rural
FR31013,831013,BILLERE,AirBase,FR,BILLERE,01/01/2005,12/31/2006,43.3100,-0.3911,195,Urban
FR31014,831014,HAMEAU,AirBase,FR,HAMEAU,01/01/2005,12/31/2006,43.3100,-0.3228,227,Urban
FR31016,831016,SAINT-CROUTS,AirBase,FR,SAINT-CROUTS,01/01/2005,12/31/2006,43.4600,-1.4881,35,Urban
FR31018,831018,BIARRITZ,AirBase,FR,BIARRITZ,01/01/2005,12/31/2006,43.4600,-1.5525,65,Urban
FR31032,831032,AGEN,AirBase,FR,AGEN,01/01/2005,12/31/2006,44.1933,0.6239,36,Urban
FR31033,831033,PERIGUEUX,AirBase,FR,PERIGUEUX,01/01/2005,12/31/2006,45.1933,0.7272,142,Urban
FR31035,831035,ARCACHON,AirBase,FR,ARCACHON,01/01/2005,12/31/2006,44.6600,-1.1706,30,Urban
FR31036,831036,DAX,AirBase,FR,DAX,01/01/2005,12/31/2006,43.7000,-1.0386,3,Urban
FR32002,832002,Champforgueil,AirBase,FR,Champforgueil,01/01/2005,12/31/2006,46.8167,4.8350,187,Suburban
FR32003,832003,Hilaire Chardonnet,AirBase,FR,Hilaire Chardonnet,01/01/2005,12/31/2006,46.8000,4.8653,182,Suburban
FR32004,832004,Macon Champlevert,AirBase,FR,Macon Champlevert,01/01/2005,12/31/2006,46.3033,4.8123,229,Suburban
FR32005,832005,Montceau-les-Mines,AirBase,FR,Montceau-les-Mines,01/01/2005,12/31/2006,46.6667,4.3667,280,Suburban
FR32006,832006,Macon Paul Bert,AirBase,FR,Macon Paul Bert,01/01/2005,12/31/2006,46.3167,4.8413,190,Suburban
FR32007,832007,Le Creusot Molette,AirBase,FR,Le Creusot Molette,01/01/2005,12/31/2006,46.8000,4.4170,350,Suburban
FR33101,833101,PASTEUR,AirBase,FR,PASTEUR,01/01/2005,12/31/2006,45.5600,5.9283,280,Suburban
FR33102,833102,CHAMBERY LE HAUT,AirBase,FR,CHAMBERY LE HAUT,01/01/2005,12/31/2006,45.5933,5.9186,383,Suburban
FR33111,833111,SAINT JEAN,AirBase,FR,SAINT JEAN,01/01/2005,12/31/2006,45.2767,6.3497,555,Suburban
FR33120,833120,CHAMONIX,AirBase,FR,CHAMONIX,01/01/2005,12/31/2006,45.9267,6.8700,1038,Rural
FR33121,833121,Albertville,AirBase,FR,Albertville,01/01/2005,12/31/2006,45.6767,6.3897,352,Urban
FR33201,833201,LOVERCHY,AirBase,FR,LOVERCHY,01/01/2005,12/31/2006,45.8933,6.1184,453,Suburban
FR33202,833202,NOVEL,AirBase,FR,NOVEL,01/01/2005,12/31/2006,45.9167,6.1356,461,Suburban
FR33260,833260,THONON les Bains,AirBase,FR,THONON les Bains,01/01/2005,12/31/2006,46.3767,6.4847,425,Urban
FR33301,833301,Bourg en Bresse,AirBase,FR,Bourg en Bresse,01/01/2005,12/31/2006,46.2100,5.2247,223,Urban
FR33303,833303,Ferney-Voltaire,AirBase,FR,Ferney-Voltaire,01/01/2005,12/31/2006,46.2600,6.1125,417,Urban
FR34011,834011,Prefecture,AirBase,FR,Prefecture,01/01/2005,12/31/2006,47.9000,1.9106,111,Urban
FR34012,834012,La Source,AirBase,FR,La Source,01/01/2005,12/31/2006,47.8333,1.9277,106,Urban
FR34014,834014,St Jean,AirBase,FR,St Jean,01/01/2005,12/31/2006,47.9167,1.9664,100,Urban
FR34018,834018,Montargis,AirBase,FR,Montargis,01/01/2005,12/31/2006,47.9933,2.7202,97,Urban
FR34023,834023,Jardin Botanique,AirBase,FR,Jardin Botanique,01/01/2005,12/31/2006,47.3933,0.6669,47,Urban
FR34024,834024,Joue les Tours,AirBase,FR,Joue les Tours,01/01/2005,12/31/2006,47.3433,0.6533,85,Urban
FR34025,834025,La Bruyere,AirBase,FR,La Bruyere,01/01/2005,12/31/2006,47.4167,0.6841,92,Urban
FR34031,834031,Gibjoncs,AirBase,FR,Gibjoncs,01/01/2005,12/31/2006,47.0933,2.4109,164,Urban
FR34032,834032,Leblanc,AirBase,FR,Leblanc,01/01/2005,12/31/2006,47.0867,2.4045,109,Urban
FR34041,834041,Fulbert,AirBase,FR,Fulbert,01/01/2005,12/31/2006,48.4433,1.5093,145,Urban
FR34042,834042,Luce,AirBase,FR,Luce,01/01/2005,12/31/2006,48.4333,1.4706,115,Urban
FR34043,834043,Oysonville,AirBase,FR,Oysonville,01/01/2005,12/31/2006,48.3933,1.9560,150,Rural
FR34046,834046,Dreux Centre,AirBase,FR,Dreux Centre,01/01/2005,12/31/2006,48.7267,1.3639,68,Urban
FR34051,834051,Chateauroux Sud,AirBase,FR,Chateauroux Sud,01/01/2005,12/31/2006,46.8033,1.6938,155,Urban
FR34052,834052,Deols,AirBase,FR,Deols,01/01/2005,12/31/2006,46.8267,1.7048,145,Urban
FR34061,834061,Blois nord,AirBase,FR,Blois nord,01/01/2005,12/31/2006,47.5933,1.3037,115,Urban
FR34062,834062,Blois centre,AirBase,FR,Blois centre,01/01/2005,12/31/2006,47.5933,1.3338,70,Urban
FR35001,835001,LIMOGES - Madoumier,AirBase,FR,LIMOGES - Madoumier,01/01/2005,12/31/2006,45.8433,1.2200,269,Suburban
FR35002,835002,ST JUNIEN - Fontaine,AirBase,FR,ST JUNIEN - Fontaine,01/01/2005,12/31/2006,45.8933,0.9000,206,Suburban
FR35003,835003,LIMOGES - Presidial,AirBase,FR,LIMOGES - Presidial,01/01/2005,12/31/2006,45.8267,1.2600,301,Urban
FR35004,835004,BRIVE - Dalton,AirBase,FR,BRIVE - Dalton,01/01/2005,12/31/2006,45.1600,0.8200,121,Urban
FR35005,835005,GUERET - Nicolas,AirBase,FR,GUERET - Nicolas,01/01/2005,12/31/2006,46.1667,1.8700,437,Urban
FR35006,835006,TULLE - Hugo,AirBase,FR,TULLE - Hugo,01/01/2005,12/31/2006,45.2600,1.7600,236,Rural
FR35007,835007,PALAIS S/ V.- Garros,AirBase,FR,PALAIS S V.- Garros,01/01/2005,12/31/2006,45.8667,1.3100,333,Suburban
FR36001,836001,Valence Periurb. Sud,AirBase,FR,Valence Periurb. Sud,01/01/2005,12/31/2006,44.8667,4.8763,125,Suburban
FR36002,836002,Valence Urb. Centre,AirBase,FR,Valence Urb. Centre,01/01/2005,12/31/2006,44.9333,4.8935,125,Urban
FR36004,836004,Annonay Urb centre,AirBase,FR,Annonay Urb centre,01/01/2005,12/31/2006,45.2433,4.6697,200,Suburban
FR36005,836005,Drome Rurale Sud,AirBase,FR,Drome Rurale Sud,01/01/2005,12/31/2006,44.5167,5.0899,460,Rural
GB0002R,2700027,ESKDALEMUIR,AirBase,GB,ESKDALEMUIR,01/01/2005,12/31/2006,55.3200,-3.2061,269,Rural
GB0006R,2700067,LOUGH NAVAR,AirBase,GB,LOUGH NAVAR,01/01/2005,12/31/2006,54.4433,-7.8989,130,Rural
GB0013R,2700137,YARNER WOOD,AirBase,GB,YARNER WOOD,01/01/2005,12/31/2006,50.5933,-3.7164,119,Rural
GB0014R,2700147,HIGH MUFFLES,AirBase,GB,HIGH MUFFLES,01/01/2005,12/31/2006,54.3333,-0.8092,267,Rural
GB0033R,2700337,BUSH ESTATE,AirBase,GB,BUSH ESTATE,01/01/2005,12/31/2006,55.8600,-3.2061,180,Rural
GB0034R,2700347,GLAZEBURY,AirBase,GB,LIVERPOOL,01/01/2005,12/31/2006,53.4600,-2.4725,21,Suburban
GB0036R,2700367,HARWELL,AirBase,GB,HARWELL,01/01/2005,12/31/2006,51.5667,-1.3267,137,Rural
GB0037R,2700377,LADYBOWER,AirBase,GB,LADYBOWER,01/01/2005,12/31/2006,53.4000,-1.7522,420,Rural
GB0038R,2700387,LULLINGTON HEATH,AirBase,GB,LULLINGTON HEATH,01/01/2005,12/31/2006,50.7933,0.1817,125,Rural
GB0043R,2700437,NARBERTH,AirBase,GB,NARBERTH,01/01/2005,12/31/2006,51.7867,-4.6914,169,Rural
GB0044R,2700447,SOMERTON,AirBase,GB,SOMERTON,01/01/2005,12/31/2006,51.0333,-2.7353,55,Rural
GB0045R,2700457,WICKEN FEN,AirBase,GB,WICKEN FEN,01/01/2005,12/31/2006,52.3033,-0.2908,5,Rural
GB0051A,2700510,GIBRALTAR BLEAK HOUSE,AirBase,GB,GIBRALTAR,01/01/2005,12/31/2006,36.1100,-5.3503,50,Urban
GB0420A,2704200,WEST LONDON,AirBase,GB,LONDON,01/01/2005,12/31/2006,51.4933,-0.2003,20,Urban
GB0452A,2704520,GLASGOW CITY CHAMBERS,AirBase,GB,GLASGOW,01/01/2005,12/31/2006,55.8600,-4.2458,15,Urban
GB0453A,2704530,MANCHESTER TOWN HALL,AirBase,GB,MANCHESTER,01/01/2005,12/31/2006,53.4767,-2.2445,90,Urban
GB0455A,2704550,WALSALL ALUMWELL,AirBase,GB,WALSALL,01/01/2005,12/31/2006,52.5867,-2.0106,20,Urban
GB0566A,2705660,LONDON BLOOMSBURY,AirBase,GB,LONDON,01/01/2005,12/31/2006,51.5167,-0.1206,20,Urban
GB0567A,2705670,BELFAST CENTRE,AirBase,GB,BELFAST,01/01/2005,12/31/2006,54.6033,-5.9278,10,Urban
GB0568A,2705680,NEWCASTLE CENTRE,AirBase,GB,NEWCASTLE UPON TYNE,01/01/2005,12/31/2006,54.9767,-1.6106,45,Urban
GB0569A,2705690,BIRMINGHAM CENTRE,AirBase,GB,BIRMINGHAM,01/01/2005,12/31/2006,52.4767,-1.9081,163,Urban
GB0580A,2705800,CARDIFF CENTRE,AirBase,GB,CARDIFF,01/01/2005,12/31/2006,51.4767,-3.1761,12,Urban
GB0584A,2705840,LEEDS CENTRE,AirBase,GB,LEEDS,01/01/2005,12/31/2006,53.8000,-1.5464,78,Urban
GB0586A,2705860,LONDON ELTHAM,AirBase,GB,LONDON,01/01/2005,12/31/2006,51.4500,0.0708,60,Suburban
GB0597A,2705970,LEICESTER CENTRE,AirBase,GB,LEICESTER,01/01/2005,12/31/2006,52.6267,-1.1331,65,Urban
GB0598A,2705980,SOUTHAMPTON CENTRE,AirBase,GB,SOUTHAMPTON,01/01/2005,12/31/2006,50.9100,-1.3961,7,Urban
GB0608A,2706080,LONDON BEXLEY,AirBase,GB,LONDON,01/01/2005,12/31/2006,51.4700,0.1847,13,Suburban
GB0613A,2706130,MANCHESTER PICCADILLY,AirBase,GB,MANCHESTER,01/01/2005,12/31/2006,53.4767,-2.2378,45,Urban
GB0614A,2706140,WOLVERHAMPTON CENTRE,AirBase,GB,WOLVERHAMPTON,01/01/2005,12/31/2006,52.5933,-2.1289,140,Urban
GB0615A,2706150,SHEFFIELD CENTRE,AirBase,GB,SHEFFIELD,01/01/2005,12/31/2006,53.3767,-1.4733,35,Urban
GB0616A,2706160,LONDON BRENT,AirBase,GB,LONDON,01/01/2005,12/31/2006,51.5933,-0.2753,25,Urban
GB0617A,2706170,ROCHESTER STOKE,AirBase,GB,ROCHESTER STOKE,01/01/2005,12/31/2006,51.4600,0.6345,14,Rural
GB0620A,2706200,LONDON N. KENSINGTON,AirBase,GB,LONDON,01/01/2005,12/31/2006,51.5167,-0.2133,5,Urban
GB0641A,2706410,GLASGOW CENTRE,AirBase,GB,GLASGOW,01/01/2005,12/31/2006,55.8600,-4.2553,5,Urban
GB0642A,2706420,LONDON HILLINGDON,AirBase,GB,LONDON,01/01/2005,12/31/2006,51.4933,-0.4611,34,Suburban
GB0643A,2706430,LEAMINGTON SPA,AirBase,GB,LEAMINGTON SPA,01/01/2005,12/31/2006,52.2933,-1.5331,175,Urban
GB0644A,2706440,LONDON TEDDINGTON,AirBase,GB,LONDON,01/01/2005,12/31/2006,51.4167,-0.3397,29,Urban
GB0645A,2706450,THURROCK,AirBase,GB,THURROCK,01/01/2005,12/31/2006,51.4767,0.3172,8,Urban
GB0646A,2706460,NOTTINGHAM CENTRE,AirBase,GB,NOTTINGHAM,01/01/2005,12/31/2006,52.9500,-1.1467,41,Urban
GB0649A,2706490,MANCHESTER SOUTH,AirBase,GB,MANCHESTER,01/01/2005,12/31/2006,53.3667,-2.2433,68,Suburban
GB0650A,2706500,LONDON HACKNEY,AirBase,GB,LONDON,01/01/2005,12/31/2006,51.5600,-0.0567,20,Urban
GB0654A,2706540,BOLTON,AirBase,GB,BOLTON,01/01/2005,12/31/2006,53.5767,-2.4395,103,Urban
GB0658A,2706580,STOKE-ON-TRENT CENTRE,AirBase,GB,STOKE - ON - TRENT,01/01/2005,12/31/2006,53.0267,-2.1753,172,Urban
GB0672A,2706720,LONDON LEWISHAM,AirBase,GB,LONDON,01/01/2005,12/31/2006,51.4433,-0.0203,20,Urban
GB0673A,2706730,DERRY,AirBase,GB,LONDONDERRY,01/01/2005,12/31/2006,55.0000,-7.3283,32,Urban
GB0674A,2706740,WALSALL WILLENHALL,AirBase,GB,WALSALL,01/01/2005,12/31/2006,52.6100,-2.0331,148,Suburban
GB0677A,2706770,ROTHERHAM CENTRE,AirBase,GB,ROTHERHAM,01/01/2005,12/31/2006,53.4367,-1.3531,35,Urban
GB0679A,2706790,REDCAR,AirBase,GB,REDCAR,01/01/2005,12/31/2006,54.6100,-1.0728,4,Suburban
GB0681A,2706810,BARNSLEY GAWBER,AirBase,GB,BARNSLEY,01/01/2005,12/31/2006,53.5600,-1.5103,100,Urban
GB0684A,2706840,NORWICH CENTRE,AirBase,GB,NORWICH,01/01/2005,12/31/2006,52.6367,1.2950,4,Urban
GB0689A,2706890,BRADFORD CENTRE,AirBase,GB,BRADFORD,01/01/2005,12/31/2006,53.7933,-1.7472,102,Urban
GB0698A,2706980,SANDWELL WEST BROMWICH,AirBase,GB,SANDWELL,01/01/2005,12/31/2006,52.5167,-1.9956,172,Urban
GB0728A,2707280,SOUTHEND-ON-SEA,AirBase,GB,SOUTHEND - ON - SEA,01/01/2005,12/31/2006,51.5433,0.6747,37,Urban
GB0729A,2707290,ABERDEEN,AirBase,GB,ABERDEEN,01/01/2005,12/31/2006,57.1600,-2.0942,5,Urban
GB0730A,2707300,WIRRAL TRANMERE,AirBase,GB,BIRKENHEAD,01/01/2005,12/31/2006,53.3767,-3.0217,38,Urban
GB0731A,2707310,PRESTON,AirBase,GB,PRESTONPANS,01/01/2005,12/31/2006,53.7700,-2.6803,40,Urban
GB0733A,2707330,PORTSMOUTH,AirBase,GB,PORTSMOUTH,01/01/2005,12/31/2006,50.8267,-1.0686,5,Urban
GB0737A,2707370,CANTERBURY,AirBase,GB,CANTERBURY,01/01/2005,12/31/2006,51.2767,1.0986,35,Urban
GB0738A,2707380,NORTHAMPTON,AirBase,GB,NORTHAMPTON,01/01/2005,12/31/2006,52.2767,-0.8859,129,Urban
GB0739A,2707390,COVENTRY MEMORIAL PARK,AirBase,GB,COVENTRY,01/01/2005,12/31/2006,52.3933,-1.5195,95,Urban
GB0741A,2707410,BOURNEMOUTH,AirBase,GB,BOURNEMOUTH,01/01/2005,12/31/2006,50.7433,-1.8267,30,Urban
GB0743A,2707430,LONDON WESTMINSTER,AirBase,GB,LONDON,01/01/2005,12/31/2006,51.4933,-0.1317,5,Urban
GB0744A,2707440,CWMBRAN,AirBase,GB,CWMBRAN,01/01/2005,12/31/2006,51.6500,-3.0056,71,Urban
GB0754A,2707540,ST OSYTH,AirBase,GB,OSYTH,01/01/2005,12/31/2006,51.7767,1.0822,8,Rural
GB0775A,2707750,STOCKPORT SHAW HEATH,AirBase,GB,STOCKPORT,01/01/2005,12/31/2006,53.4000,-2.1611,72,Urban
GB0776A,2707760,HULL FREETOWN,AirBase,GB,HULL,01/01/2005,12/31/2006,53.7533,-0.3408,4,Urban
GB0777A,2707770,LIVERPOOL SPEKE,AirBase,GB,LIVERPOOL,01/01/2005,12/31/2006,53.3433,-2.8447,26,Urban
GB0838A,2708380,MARKET HARBOROUGH,AirBase,GB,HARBOROUGH,01/01/2005,12/31/2006,52.8833,-0.7722,145,Rural
GB0839A,2708390,EDINBURGH ST LEONARDS,AirBase,GB,EDINBURGH,01/01/2005,12/31/2006,55.9433,-3.1822,81,Urban
GB0840A,2708400,READING NEW TOWN,AirBase,GB,READING,01/01/2005,12/31/2006,51.4500,-0.9445,58,Urban
GB0851A,2708510,BIRMINGHAM TYBURN,AirBase,GB,BIRMINGHAM,01/01/2005,12/31/2006,52.5100,-1.8306,93,Urban
GB0860A,2708600,BRIGHTON PRESTON PARK,AirBase,GB,BRIGHTON,01/01/2005,12/31/2006,50.8433,0.1478,10,Urban
GB0861A,2708610,LEOMINSTER,AirBase,GB,LEOMINSTER,01/01/2005,12/31/2006,52.2167,-2.7367,75,Suburban
GB0863A,2708630,SUNDERLAND SILKSWORTH,AirBase,GB,SUNDERLAND,01/01/2005,12/31/2006,54.8833,-1.4070,110,Urban
GB0864A,2708640,WIGAN CENTRE,AirBase,GB,WIGAN,01/01/2005,12/31/2006,53.5533,-2.6381,45,Urban
GB0882A,2708820,BLACKPOOL MARTON,AirBase,GB,BLACKPOOL,01/01/2005,12/31/2006,53.8000,-3.0058,15,Urban
GR0027A,1100270,LIOSIA,AirBase,GR,ANO LIOSIA,01/01/2005,12/31/2006,38.0767,23.6978,165,Suburban
GR0028A,1100280,PERISTERI,AirBase,GR,PERISTERI,01/01/2005,12/31/2006,38.0200,23.6961,80,Urban
GR0031A,1100310,NEA SMIRNI,AirBase,GR,NEA SMYRNI,01/01/2005,12/31/2006,37.9367,23.7150,50,Urban
GR0035A,1100350,LYKOVRISI,AirBase,GR,LYKOVRISI,01/01/2005,12/31/2006,38.0667,23.7770,210,Suburban
GR0037A,1100370,THRAKOMAKEDONES,AirBase,GR,THRACOMAKEDONES,01/01/2005,12/31/2006,38.1433,23.7581,550,Suburban
GR0039A,1100390,Agia PARASKEVI,AirBase,GR,AGIA PARASKEVI,01/01/2005,12/31/2006,37.9933,23.8194,290,Suburban
GR0041A,1100410,PIREAUS-2,AirBase,GR,PIREAS,01/01/2005,12/31/2006,37.9433,23.6528,25,Urban
GR0043A,1100430,ZOGRAFOU,AirBase,GR,ZOGRAFOS,01/01/2005,12/31/2006,37.9667,23.7869,245,Suburban
GR0045A,1100450,NEOCHOROUDA,AirBase,GR,KALITHEA,01/01/2005,12/31/2006,40.7433,22.8761,300,Suburban
GR0110R,1101107,ALIARTOS,AirBase,GR,ALIARTOS,01/01/2005,12/31/2006,38.3667,23.0900,110,Rural
