"stat_id","num_stat_id","stat_name","network","state","city","start_date","end_date","lat","lon","elevation","GMT_offset","NLCD2011.ImperviousSurface","NLCD2011.ImperviousSurface.Location.Setting","NLCD2006.ImperviousSurface","NLCD2006.ImperviousSurface.Location.Setting","NLCD2001.ImperviousSurface","NLCD2001.ImperviousSurface.Location.Setting"
"AB32",368,"Fort Mackay","nadp","AB",NA,"09/13/2016","",57.2096,-111.647,265,7,NA,NA,NA,NA,NA,NA
"AG01",1,"Laurenti-MAR","nadp","AG",NA,"10/24/2011","",-30.9501,-62.8244,83,5,NA,NA,NA,NA,NA,NA
"AK01",2,"Poker Creek","nadp","AK",NA,"12/29/1992","",65.155,-147.491,230,9,NA,NA,NA,NA,NA,NA
"AK02",3,"Juneau","nadp","AK",NA,"6/22/2004","",58.5139,-134.7843,25,9,NA,NA,NA,NA,NA,NA
"AK03",4,"Denali National Park-Mt. McKinley","nadp","AK",NA,"6/17/1980","",63.7232,-148.9676,661,9,NA,NA,NA,NA,NA,NA
"AK06",5,"Gates of the Arctic National Park - Bettles","nadp","AK",NA,"11/4/2008","",66.906,-151.683,630,9,NA,NA,NA,NA,NA,NA
"AK97",6,"Katmai National Park - King Salmon","nadp","AK",NA,"11/2/2009","",58.6794,-156.6664,50,9,NA,NA,NA,NA,NA,NA
"AK99",265,"Ambler","nadp","AK",NA,"5/12/2004","8/9/2005",67.0931,-157.8689,88,9,NA,NA,NA,NA,NA,NA
"AL02",266,"Delta Elementary","nadp","AL",NA,"6/5/2001","1/5/2010",30.7907,-87.8498,66,6,0.258953154087067,"DEVELOPED_OPEN_SPACE",0.258953154087067,"DEVELOPED_OPEN_SPACE",0.258953154087067,"DEVELOPED_OPEN_SPACE"
"AL03",7,"Centreville","nadp","AL",NA,"2/22/2011","",32.9034,-87.2499,135,6,0.807162523269653,"DEVELOPED_OPEN_SPACE",0.807162523269653,"DEVELOPED_OPEN_SPACE",0.807162523269653,"DEVELOPED_OPEN_SPACE"
"AL10",8,"Black Belt Research & Extension Center","nadp","AL",NA,"8/31/1983","",32.4583,-87.2422,58,6,0.0964187309145927,"DEVELOPED_OPEN_SPACE",0.0964187309145927,"DEVELOPED_OPEN_SPACE",0.0964187309145927,"DEVELOPED_OPEN_SPACE"
"AL19",9,"Birmingham","nadp","AL",NA,"12/19/2012","",33.553,-86.8148,200,6,53.0679512023926,"DEVELOPED_MEDIUM_INTENSITY",52.717170715332,"DEVELOPED_MEDIUM_INTENSITY",51.9944915771484,"DEVELOPED_MEDIUM_INTENSITY"
"AL24",267,"Bay Road","nadp","AL",NA,"5/29/2001","1/5/2010",30.4746,-88.1411,6,6,0.57943069934845,"DEVELOPED_OPEN_SPACE",0.57943069934845,"DEVELOPED_OPEN_SPACE",0.57943069934845,"DEVELOPED_OPEN_SPACE"
"AL99",10,"Sand Mountain Research & Extension Center","nadp","AL",NA,"10/2/1984","",34.2886,-85.9699,349,6,0.864095509052277,"DEVELOPED_OPEN_SPACE",0.864095509052277,"DEVELOPED_OPEN_SPACE",0.864095509052277,"DEVELOPED_OPEN_SPACE"
"AR02",11,"Warren 2WSW","nadp","AR",NA,"5/25/1982","",33.605,-92.0972,76,6,1.41965103149414,"DEVELOPED_OPEN_SPACE",1.41965103149414,"DEVELOPED_OPEN_SPACE",1.41965103149414,"DEVELOPED_OPEN_SPACE"
"AR03",12,"Caddo Valley","nadp","AR",NA,"12/30/1983","",34.1795,-93.0992,71,6,0,"NO_DEVELOPMENT",0,"NO_DEVELOPMENT",0,"NO_DEVELOPMENT"
"AR16",13,"Buffalo National River-Buffalo Point","nadp","AR",NA,"7/13/1982","",36.0842,-92.5868,311,6,0,"NO_DEVELOPMENT",0,"NO_DEVELOPMENT",0,"NO_DEVELOPMENT"
"AR27",14,"Fayetteville","nadp","AR",NA,"5/13/1980","",36.1011,-94.1737,381,6,16.6896228790283,"DEVELOPED_OPEN_SPACE",16.4426078796387,"DEVELOPED_OPEN_SPACE",14.6675853729248,"DEVELOPED_OPEN_SPACE"
"AS01",268,"Samoa","nadp","AS",NA,"5/20/1980","10/13/1992",-14.2525,-170.5633,82,10,NA,NA,NA,NA,NA,NA
"AZ01",269,"Tombstone","nadp","AZ",NA,"3/27/1979","9/1/1981",31.7089,-110.0572,1398,7,2.63085389137268,"DEVELOPED_OPEN_SPACE",2.63085389137268,"DEVELOPED_OPEN_SPACE",2.54912757873535,"DEVELOPED_OPEN_SPACE"
"AZ03",15,"Grand Canyon National Park-Hopi Point","nadp","AZ",NA,"8/11/1981","",36.0586,-112.184,2071,7,0.702479362487793,"DEVELOPED_OPEN_SPACE",0.702479362487793,"DEVELOPED_OPEN_SPACE",0.702479362487793,"DEVELOPED_OPEN_SPACE"
"AZ06",16,"Organ Pipe Cactus National Monument","nadp","AZ",NA,"4/15/1980","",31.9492,-112.802,501,7,6.21303939819336,"DEVELOPED_OPEN_SPACE",6.21303939819336,"DEVELOPED_OPEN_SPACE",6.21303939819336,"DEVELOPED_OPEN_SPACE"
"AZ97",17,"Petrified Forest National Park-Rainbow Forest","nadp","AZ",NA,"12/3/2002","",34.8224,-109.8925,1707,7,0.475665748119354,"DEVELOPED_OPEN_SPACE",0.475665748119354,"DEVELOPED_OPEN_SPACE",0.475665748119354,"DEVELOPED_OPEN_SPACE"
"AZ98",18,"Chiricahua","nadp","AZ",NA,"2/23/1999","",32.0097,-109.3889,1570,7,0.00183654727879912,"DEVELOPED_OPEN_SPACE",0.00183654727879912,"DEVELOPED_OPEN_SPACE",0.00183654727879912,"DEVELOPED_OPEN_SPACE"
"AZ99",19,"Oliver Knoll","nadp","AZ",NA,"8/25/1981","",33.0708,-109.866,1176,7,0.036730945110321,"DEVELOPED_OPEN_SPACE",0.036730945110321,"DEVELOPED_OPEN_SPACE",0.036730945110321,"DEVELOPED_OPEN_SPACE"
"BC22",20,"Haul Road Station","nadp","BC",NA,"9/19/2012","",54.0294,-128.7019,NA,8,NA,NA,NA,NA,NA,NA
"BC23",21,"Lakelse Lake","nadp","BC",NA,"3/20/2013","",54.3772,-128.5775,111,8,NA,NA,NA,NA,NA,NA
"BC24",22,"Port Edward","nadp","BC",NA,"1/15/2014","",54.2226,-130.2696,80,8,NA,NA,NA,NA,NA,NA
"CA28",23,"Kings River Experimental Watershed","nadp","CA",NA,"4/24/2007","",37.0592,-119.1822,2000,8,0.0615243352949619,"DEVELOPED_OPEN_SPACE",0.0615243352949619,"DEVELOPED_OPEN_SPACE",0.0615243352949619,"DEVELOPED_OPEN_SPACE"
"CA34",270,"Bishop","nadp","CA",NA,"4/15/1980","6/22/1982",37.3708,-118.3664,1252,8,3.83838391304016,"DEVELOPED_OPEN_SPACE",3.79614329338074,"DEVELOPED_OPEN_SPACE",3.71717166900635,"DEVELOPED_OPEN_SPACE"
"CA42",24,"Tanbark Flat","nadp","CA",NA,"1/12/1982","",34.2071,-117.7618,853,8,0.121212124824524,"DEVELOPED_OPEN_SPACE",0.121212124824524,"DEVELOPED_OPEN_SPACE",0.121212124824524,"DEVELOPED_OPEN_SPACE"
"CA45",25,"Hopland","nadp","CA",NA,"10/3/1979","",39.0045,-123.086,253,8,0.463728189468384,"DEVELOPED_OPEN_SPACE",0.463728189468384,"DEVELOPED_OPEN_SPACE",0.463728189468384,"DEVELOPED_OPEN_SPACE"
"CA50",26,"Sagehen Creek","nadp","CA",NA,"11/6/2001","",39.4315,-120.2397,1931,8,0.165289252996445,"DEVELOPED_OPEN_SPACE",0.165289252996445,"DEVELOPED_OPEN_SPACE",0.165289252996445,"DEVELOPED_OPEN_SPACE"
"CA66",27,"Pinnacles National Monument-Bear Valley","nadp","CA",NA,"11/2/1999","",36.4834,-121.157,317,8,0.0835629031062126,"DEVELOPED_OPEN_SPACE",0.0835629031062126,"DEVELOPED_OPEN_SPACE",0.0835629031062126,"DEVELOPED_OPEN_SPACE"
"CA67",28,"Joshua Tree National Park-Black Rock","nadp","CA",NA,"9/19/2000","",34.0695,-116.3889,1239,8,1.2580349445343,"DEVELOPED_OPEN_SPACE",1.2580349445343,"DEVELOPED_OPEN_SPACE",1.2580349445343,"DEVELOPED_OPEN_SPACE"
"CA68",271,"Palomar Mountain","nadp","CA",NA,"3/15/1983","1/12/1988",33.3089,-116.8539,1695,8,0.520661175251007,"DEVELOPED_OPEN_SPACE",0.520661175251007,"DEVELOPED_OPEN_SPACE",0.520661175251007,"DEVELOPED_OPEN_SPACE"
"CA75",29,"Sequoia National Park-Giant Forest","nadp","CA",NA,"7/8/1980","",36.5661,-118.778,1921,8,0.0651974305510521,"DEVELOPED_OPEN_SPACE",0.0651974305510521,"DEVELOPED_OPEN_SPACE",0.0651974305510521,"DEVELOPED_OPEN_SPACE"
"CA76",30,"Montague","nadp","CA",NA,"6/25/1985","",41.7662,-122.4798,799,8,1.594123005867,"DEVELOPED_OPEN_SPACE",1.594123005867,"DEVELOPED_OPEN_SPACE",1.594123005867,"DEVELOPED_OPEN_SPACE"
"CA85",272,"Channel Islands National Park","nadp","CA",NA,"7/22/1980","2/19/1982",34.0158,-119.3619,49,8,0.0220385678112507,"DEVELOPED_OPEN_SPACE",0.0220385678112507,"DEVELOPED_OPEN_SPACE",0.0220385678112507,"DEVELOPED_OPEN_SPACE"
"CA88",31,"Davis","nadp","CA",NA,"9/4/1978","",38.5357,-121.7762,18,8,5.94398546218872,"DEVELOPED_OPEN_SPACE",5.7998161315918,"DEVELOPED_OPEN_SPACE",5.71900844573975,"DEVELOPED_OPEN_SPACE"
"CA94",32,"Converse Flats","nadp","CA",NA,"5/9/2006","",34.1938,-116.9131,1724,8,0.0909090936183929,"DEVELOPED_OPEN_SPACE",0.0909090936183929,"DEVELOPED_OPEN_SPACE",0.0909090936183929,"DEVELOPED_OPEN_SPACE"
"CA95",273,"Death Valley National Park-Cow Creek","nadp","CA",NA,"2/8/2000","5/31/2005",36.589,-116.978,125,8,0,"NO_DEVELOPMENT",0,"NO_DEVELOPMENT",0,"NO_DEVELOPMENT"
"CA96",33,"Lassen Volcanic National Park-Manzanita Lake","nadp","CA",NA,"6/13/2000","",40.539,-121.5772,1754,8,1.53719007968903,"DEVELOPED_OPEN_SPACE",1.53719007968903,"DEVELOPED_OPEN_SPACE",1.53719007968903,"DEVELOPED_OPEN_SPACE"
"CA98",274,"Chuchupate Ranger Station","nadp","CA",NA,"8/2/1983","1/23/1996",34.8061,-119.0114,1614,8,1.4949494600296,"DEVELOPED_OPEN_SPACE",1.4949494600296,"DEVELOPED_OPEN_SPACE",1.4949494600296,"DEVELOPED_OPEN_SPACE"
"CA99",34,"Yosemite National Park-Hodgdon Meadow","nadp","CA",NA,"12/8/1981","",37.7961,-119.8581,1393,8,0.186409547924995,"DEVELOPED_OPEN_SPACE",0.186409547924995,"DEVELOPED_OPEN_SPACE",0.186409547924995,"DEVELOPED_OPEN_SPACE"
"CAN6",279,"Frelighsburg - Intercomparison","nadp","QB",NA,"10/6/2011","9/18/2012",45.0503,-72.8617,195,5,NA,NA,NA,NA,NA,NA
"CO00",36,"Alamosa","nadp","CO",NA,"4/22/1980","",37.4421,-105.868,2285,7,16.3076210021973,"DEVELOPED_OPEN_SPACE",16.0918273925781,"DEVELOPED_OPEN_SPACE",15.4012851715088,"DEVELOPED_OPEN_SPACE"
"CO01",37,"Las Animas Fish Hatchery","nadp","CO",NA,"10/4/1983","",38.1177,-103.316,1226,7,0.0459136813879013,"DEVELOPED_OPEN_SPACE",0.0459136813879013,"DEVELOPED_OPEN_SPACE",0.0459136813879013,"DEVELOPED_OPEN_SPACE"
"CO02",38,"Niwot Saddle","nadp","CO",NA,"6/5/1984","",40.0547,-105.5891,3520,7,0,"NO_DEVELOPMENT",0,"NO_DEVELOPMENT",0,"NO_DEVELOPMENT"
"CO08",39,"Four Mile Park","nadp","CO",NA,"12/29/1987","",39.4025,-107.3454,2502,7,1.19008266925812,"DEVELOPED_OPEN_SPACE",1.19008266925812,"DEVELOPED_OPEN_SPACE",1.19008266925812,"DEVELOPED_OPEN_SPACE"
"CO09",40,"Kawaneechee Meadow","nadp","CO",NA,"7/10/2012","",40.8272,-105.8294,2633,7,0,"NO_DEVELOPMENT",0,"NO_DEVELOPMENT",0,"NO_DEVELOPMENT"
"CO10",41,"Gothic","nadp","CO",NA,"2/2/1999","",38.9561,-106.986,2915,7,0.206611573696136,"DEVELOPED_OPEN_SPACE",0.206611573696136,"DEVELOPED_OPEN_SPACE",0.206611573696136,"DEVELOPED_OPEN_SPACE"
"CO15",42,"Sand Spring","nadp","CO",NA,"3/20/1979","",40.5077,-107.7025,1998,7,3.22497701644897,"DEVELOPED_OPEN_SPACE",3.22497701644897,"DEVELOPED_OPEN_SPACE",3.22497701644897,"DEVELOPED_OPEN_SPACE"
"CO18",280,"Ripple Creek Pass","nadp","CO",NA,"5/13/2003","1/13/2009",40.0851,-107.3118,2929,7,0,"NO_DEVELOPMENT",0,"NO_DEVELOPMENT",0,"NO_DEVELOPMENT"
"CO19",43,"Rocky Mountain National Park-Beaver Meadows","nadp","CO",NA,"5/29/1980","",40.3639,-105.581,2477,7,3.93296599388123,"DEVELOPED_OPEN_SPACE",3.93296599388123,"DEVELOPED_OPEN_SPACE",3.93296599388123,"DEVELOPED_OPEN_SPACE"
"CO21",44,"Manitou","nadp","CO",NA,"10/17/1978","",39.1008,-105.0933,2362,7,0.905417799949646,"DEVELOPED_OPEN_SPACE",0.905417799949646,"DEVELOPED_OPEN_SPACE",0.905417799949646,"DEVELOPED_OPEN_SPACE"
"CO22",45,"Pawnee","nadp","CO",NA,"5/22/1979","",40.806,-104.756,1641,7,0,"NO_DEVELOPMENT",0,"NO_DEVELOPMENT",0,"NO_DEVELOPMENT"
"CO89",281,"Rocky Mountain National Park-Loch Vale","nadp","CO",NA,"9/29/2009","9/30/2014",40.29,105.66,3159,7,NA,NA,NA,NA,NA,NA
"CO90",46,"Niwot Ridge-Southeast","nadp","CO",NA,"1/24/2006","",40.0367,-105.544,3015,7,0,"NO_DEVELOPMENT",0,"NO_DEVELOPMENT",0,"NO_DEVELOPMENT"
"CO91",47,"Wolf Creek Pass","nadp","CO",NA,"5/26/1992","",37.4686,-106.787,3287,7,2.07254362106323,"DEVELOPED_OPEN_SPACE",2.07254362106323,"DEVELOPED_OPEN_SPACE",1.74655652046204,"DEVELOPED_OPEN_SPACE"
"CO92",48,"Sunlight Peak","nadp","CO",NA,"1/13/1988","",39.4264,-107.3799,3218,7,0,"NO_DEVELOPMENT",0,"NO_DEVELOPMENT",0,"NO_DEVELOPMENT"
"CO93",49,"Buffalo Pass - Dry Lake","nadp","CO",NA,"10/14/1986","",40.5347,-106.7811,2538,7,0.0220385678112507,"DEVELOPED_OPEN_SPACE",0.0220385678112507,"DEVELOPED_OPEN_SPACE",0.0220385678112507,"DEVELOPED_OPEN_SPACE"
"CO94",50,"Sugarloaf","nadp","CO",NA,"11/4/1986","",39.9939,-105.48,2524,7,1.29201102256775,"DEVELOPED_OPEN_SPACE",1.29201102256775,"DEVELOPED_OPEN_SPACE",1.29201102256775,"DEVELOPED_OPEN_SPACE"
"CO95",282,"Engineer Mountain Guard Station","nadp","CO",NA,"7/29/1986","1/2/1990",37.6597,-107.7992,2758,7,1.07438015937805,"DEVELOPED_OPEN_SPACE",1.07438015937805,"DEVELOPED_OPEN_SPACE",1.07438015937805,"DEVELOPED_OPEN_SPACE"
"CO96",51,"Molas Pass","nadp","CO",NA,"7/29/1986","",37.75,-107.689,3248,7,1.09274566173553,"DEVELOPED_OPEN_SPACE",1.09274566173553,"DEVELOPED_OPEN_SPACE",1.09274566173553,"DEVELOPED_OPEN_SPACE"
"CO97",52,"Buffalo Pass - Summit Lake","nadp","CO",NA,"2/7/1984","",40.5383,-106.6766,3234,7,0.138659313321114,"DEVELOPED_OPEN_SPACE",0.138659313321114,"DEVELOPED_OPEN_SPACE",0.138659313321114,"DEVELOPED_OPEN_SPACE"
"CO98",53,"Rocky Mountain National Park-Loch Vale","nadp","CO",NA,"8/16/1983","",40.2878,-105.6628,3159,7,0,"NO_DEVELOPMENT",0,"NO_DEVELOPMENT",0,"NO_DEVELOPMENT"
"CO99",54,"Mesa Verde National Park-Chapin Mesa","nadp","CO",NA,"4/28/1981","",37.1979,-108.491,2162,7,0.0541781447827816,"DEVELOPED_OPEN_SPACE",0.0541781447827816,"DEVELOPED_OPEN_SPACE",0.0541781447827816,"DEVELOPED_OPEN_SPACE"
"CT15",55,"Abington","nadp","CT",NA,"1/26/1999","",41.84,-72.0101,209,5,0.135904505848885,"DEVELOPED_OPEN_SPACE",0.135904505848885,"DEVELOPED_OPEN_SPACE",0.135904505848885,"DEVELOPED_OPEN_SPACE"
"DE99",283,"Trap Pond State Park","nadp","DE",NA,"5/27/2003","9/23/2008",38.4994,-75.4482,12,5,0.164370983839035,"DEVELOPED_OPEN_SPACE",0.164370983839035,"DEVELOPED_OPEN_SPACE",0.164370983839035,"DEVELOPED_OPEN_SPACE"
"FL00",284,"Austin-Cary Forest","nadp","FL",NA,"10/10/1978","7/14/1981",29.7603,-82.1989,46,5,0.126721769571304,"DEVELOPED_OPEN_SPACE",0.126721769571304,"DEVELOPED_OPEN_SPACE",0.126721769571304,"DEVELOPED_OPEN_SPACE"
"FL03",56,"Bradford Forest","nadp","FL",NA,"10/10/1978","",29.9748,-82.1978,44,5,0.243342518806458,"DEVELOPED_OPEN_SPACE",0.243342518806458,"DEVELOPED_OPEN_SPACE",0.243342518806458,"DEVELOPED_OPEN_SPACE"
"FL05",57,"Chassahowitzka National Wildlife Refuge","nadp","FL",NA,"8/27/1996","",28.7486,-82.5551,3,5,2.55647373199463,"DEVELOPED_OPEN_SPACE",2.55647373199463,"DEVELOPED_OPEN_SPACE",2.55647373199463,"DEVELOPED_OPEN_SPACE"
"FL11",58,"Everglades National Park-Research Center","nadp","FL",NA,"6/17/1980","",25.39,-80.68,2,5,0.36179980635643,"DEVELOPED_OPEN_SPACE",0.36179980635643,"DEVELOPED_OPEN_SPACE",0.36179980635643,"DEVELOPED_OPEN_SPACE"
"FL14",59,"Quincy","nadp","FL",NA,"3/13/1984","",30.5486,-84.6004,60,5,0.097337007522583,"DEVELOPED_OPEN_SPACE",0.097337007522583,"DEVELOPED_OPEN_SPACE",0.097337007522583,"DEVELOPED_OPEN_SPACE"
"FL23",60,"Sumatra","nadp","FL",NA,"1/26/1999","",30.1106,-84.9902,14,5,0.377410471439362,"DEVELOPED_OPEN_SPACE",0.377410471439362,"DEVELOPED_OPEN_SPACE",0.377410471439362,"DEVELOPED_OPEN_SPACE"
"FL32",61,"Orlando","nadp","FL",NA,"12/14/2005","",28.5926,-81.1904,21,5,35.5794296264648,"DEVELOPED_LOW_INTENSITY",31.0752983093262,"DEVELOPED_LOW_INTENSITY",30.6969699859619,"DEVELOPED_LOW_INTENSITY"
"FL41",62,"Verna Well Field","nadp","FL",NA,"8/25/1983","",27.3801,-82.2831,25,5,0,"NO_DEVELOPMENT",0,"NO_DEVELOPMENT",0,"NO_DEVELOPMENT"
"FL96",63,"Pensacola","nadp","FL",NA,"1/2/2013","",30.5499,-87.375,45,6,4.77869606018066,"DEVELOPED_OPEN_SPACE",3.18365478515625,"DEVELOPED_OPEN_SPACE",2.75941228866577,"DEVELOPED_OPEN_SPACE"
"FL99",64,"Kennedy Space Center","nadp","FL",NA,"8/2/1983","",28.5428,-80.644,2,5,0,"NO_DEVELOPMENT",0,"NO_DEVELOPMENT",0,"NO_DEVELOPMENT"
"GA09",65,"Okefenokee National Wildlife Refuge","nadp","GA",NA,"6/3/1997","",30.7404,-82.1283,45,5,1.04224061965942,"DEVELOPED_OPEN_SPACE",1.04224061965942,"DEVELOPED_OPEN_SPACE",1.04224061965942,"DEVELOPED_OPEN_SPACE"
"GA20",66,"Bellville","nadp","GA",NA,"4/26/1983","",32.0849,-81.9367,54,5,0.621671259403229,"DEVELOPED_OPEN_SPACE",0.621671259403229,"DEVELOPED_OPEN_SPACE",0.621671259403229,"DEVELOPED_OPEN_SPACE"
"GA23",285,"Fort Frederica National Monument","nadp","GA",NA,"9/3/1985","9/27/1988",31.2253,-81.3922,2,5,0.149678602814674,"DEVELOPED_OPEN_SPACE",0.149678602814674,"DEVELOPED_OPEN_SPACE",0.149678602814674,"DEVELOPED_OPEN_SPACE"
"GA33",67,"Sapelo Island","nadp","GA",NA,"11/26/2002","",31.3961,-81.2811,3,5,0.30303031206131,"DEVELOPED_OPEN_SPACE",0.30303031206131,"DEVELOPED_OPEN_SPACE",0.30303031206131,"DEVELOPED_OPEN_SPACE"
"GA41",68,"Georgia Station","nadp","GA",NA,"10/3/1978","",33.1805,-84.4103,267,5,0.152433425188065,"DEVELOPED_OPEN_SPACE",0.152433425188065,"DEVELOPED_OPEN_SPACE",0.152433425188065,"DEVELOPED_OPEN_SPACE"
"GA50",286,"Tifton ARS","nadp","GA",NA,"10/4/1983","2/10/1994",31.4731,-83.5331,104,5,23.5114784240723,"DEVELOPED_LOW_INTENSITY",22.7493114471436,"DEVELOPED_LOW_INTENSITY",22.266300201416,"DEVELOPED_LOW_INTENSITY"
"GA98",287,"Skidaway","nadp","GA",NA,"6/18/2002","5/24/2005",31.9958,-81.0185,3,5,0.207529842853546,"DEVELOPED_OPEN_SPACE",0.207529842853546,"DEVELOPED_OPEN_SPACE",0.207529842853546,"DEVELOPED_OPEN_SPACE"
"GA99",69,"Chula","nadp","GA",NA,"2/10/1994","",31.5217,-83.5482,108,5,0.366391181945801,"DEVELOPED_OPEN_SPACE",0.366391181945801,"DEVELOPED_OPEN_SPACE",0.366391181945801,"DEVELOPED_OPEN_SPACE"
"HI00",288,"Mauna Loa","nadp","HI",NA,"6/10/1980","9/28/1993",19.5392,-155.5792,3399,10,NA,NA,NA,NA,NA,NA
"HI99",289,"Hawaii Volcanoes National Park-Thurston","nadp","HI",NA,"11/21/2000","2/15/2005",19.4194,-155.2403,1195,10,NA,NA,NA,NA,NA,NA
"IA08",70,"Big Springs Fish Hatchery","nadp","IA",NA,"8/14/1984","",42.9097,-91.47,229,6,0.144168958067894,"DEVELOPED_OPEN_SPACE",0.144168958067894,"DEVELOPED_OPEN_SPACE",0.144168958067894,"DEVELOPED_OPEN_SPACE"
"IA23",71,"McNay Research Center","nadp","IA",NA,"9/11/1984","",40.9631,-93.3925,320,6,0.263544529676437,"DEVELOPED_OPEN_SPACE",0.263544529676437,"DEVELOPED_OPEN_SPACE",0.263544529676437,"DEVELOPED_OPEN_SPACE"
"ID02",72,"Priest River Experimental Forest","nadp","ID",NA,"12/31/2002","",48.3518,-116.8397,726,8,0.465564727783203,"DEVELOPED_OPEN_SPACE",0.465564727783203,"DEVELOPED_OPEN_SPACE",0.465564727783203,"DEVELOPED_OPEN_SPACE"
"ID03",73,"Craters of the Moon National Monument","nadp","ID",NA,"8/22/1980","",43.4605,-113.5551,1807,7,10.4756660461426,"DEVELOPED_OPEN_SPACE",10.390266418457,"DEVELOPED_OPEN_SPACE",10.3140497207642,"DEVELOPED_OPEN_SPACE"
"ID04",290,"Headquarters","nadp","ID",NA,"7/20/1982","9/25/1991",46.6278,-115.8194,969,8,2.1175389289856,"DEVELOPED_OPEN_SPACE",2.1175389289856,"DEVELOPED_OPEN_SPACE",2.1175389289856,"DEVELOPED_OPEN_SPACE"
"ID11",74,"Reynolds Creek","nadp","ID",NA,"11/22/1983","",43.2049,-116.75,1200,7,0.212121218442917,"DEVELOPED_OPEN_SPACE",0.212121218442917,"DEVELOPED_OPEN_SPACE",0.212121218442917,"DEVELOPED_OPEN_SPACE"
"ID15",291,"Smiths Ferry","nadp","ID",NA,"10/9/1984","9/27/2006",44.2978,-116.0636,1442,7,0.494949489831924,"DEVELOPED_OPEN_SPACE",0.494949489831924,"DEVELOPED_OPEN_SPACE",0.494949489831924,"DEVELOPED_OPEN_SPACE"
"IL11",75,"Bondville","nadp","IL",NA,"2/27/1979","",40.0528,-88.3719,212,6,0.915518820285797,"DEVELOPED_OPEN_SPACE",0.915518820285797,"DEVELOPED_OPEN_SPACE",0.915518820285797,"DEVELOPED_OPEN_SPACE"
"IL18",76,"Shabbona","nadp","IL",NA,"5/26/1981","",41.8414,-88.8511,265,6,1.6427915096283,"DEVELOPED_OPEN_SPACE",1.6427915096283,"DEVELOPED_OPEN_SPACE",1.6427915096283,"DEVELOPED_OPEN_SPACE"
"IL19",292,"Argonne","nadp","IL",NA,"3/11/1980","9/28/2004",41.7011,-87.9953,229,6,9.52341556549072,"DEVELOPED_OPEN_SPACE",8.27180862426758,"DEVELOPED_OPEN_SPACE",7.32506895065308,"DEVELOPED_OPEN_SPACE"
"IL35",293,"Southern Illinois University","nadp","IL",NA,"7/31/1979","1/4/1994",37.71,-89.2689,146,6,0.688705205917358,"DEVELOPED_OPEN_SPACE",0.688705205917358,"DEVELOPED_OPEN_SPACE",0.688705205917358,"DEVELOPED_OPEN_SPACE"
"IL46",77,"Alhambra","nadp","IL",NA,"1/26/1999","",38.8689,-89.6219,164,6,1.07438015937805,"DEVELOPED_OPEN_SPACE",1.07438015937805,"DEVELOPED_OPEN_SPACE",1.07438015937805,"DEVELOPED_OPEN_SPACE"
"IL47",294,"Salem","nadp","IL",NA,"4/15/1980","11/22/1988",38.6433,-88.9669,173,6,3.87052345275879,"DEVELOPED_OPEN_SPACE",3.87052345275879,"DEVELOPED_OPEN_SPACE",3.87052345275879,"DEVELOPED_OPEN_SPACE"
"IL63",78,"Dixon Springs Agricultural Center","nadp","IL",NA,"1/30/1979","",37.4356,-88.6719,161,6,2.29843902587891,"DEVELOPED_OPEN_SPACE",2.29843902587891,"DEVELOPED_OPEN_SPACE",2.29843902587891,"DEVELOPED_OPEN_SPACE"
"IL78",79,"Monmouth","nadp","IL",NA,"1/8/1985","",40.9333,-90.7231,229,6,0.923783302307129,"DEVELOPED_OPEN_SPACE",0.923783302307129,"DEVELOPED_OPEN_SPACE",0.923783302307129,"DEVELOPED_OPEN_SPACE"
"IL95",367,"Bondville","nadp","IL",NA,"1/1/2015","03/31/2016",40.0528,-88.3719,212,6,0.915518820285797,"DEVELOPED_OPEN_SPACE",0.915518820285797,"DEVELOPED_OPEN_SPACE",0.915518820285797,"DEVELOPED_OPEN_SPACE"
"IL99",296,"Omega","nadp","IL",NA,"9/26/1989","9/28/1993",38.71,-88.7492,153,6,0.0927456393837929,"DEVELOPED_OPEN_SPACE",0.0927456393837929,"DEVELOPED_OPEN_SPACE",0.0927456393837929,"DEVELOPED_OPEN_SPACE"
"IN20",80,"Roush Lake","nadp","IN",NA,"8/22/1983","",40.8401,-85.4639,244,5,3.44719934463501,"DEVELOPED_OPEN_SPACE",2.70798897743225,"DEVELOPED_OPEN_SPACE",2.6244261264801,"DEVELOPED_OPEN_SPACE"
"IN22",81,"Southwest Purdue Agriculture Center","nadp","IN",NA,"9/25/1984","",38.7408,-87.4855,134,5,4.17447185516357,"DEVELOPED_OPEN_SPACE",4.08172655105591,"DEVELOPED_OPEN_SPACE",4.03673076629639,"DEVELOPED_OPEN_SPACE"
"IN34",82,"Indiana Dunes National Lakeshore","nadp","IN",NA,"7/15/1980","",41.6318,-87.0881,208,6,5.93388414382935,"DEVELOPED_OPEN_SPACE",4.11478424072266,"DEVELOPED_OPEN_SPACE",3.54086327552795,"DEVELOPED_OPEN_SPACE"
"IN41",83,"Agronomy Center for Research and Extension","nadp","IN",NA,"7/13/1982","",40.4749,-86.9924,215,5,3.25252532958984,"DEVELOPED_OPEN_SPACE",3.25252532958984,"DEVELOPED_OPEN_SPACE",3.25252532958984,"DEVELOPED_OPEN_SPACE"
"KS07",84,"Farlington Fish Hatchery","nadp","KS",NA,"3/27/1984","",37.6511,-94.8036,281,6,0.168044075369835,"DEVELOPED_OPEN_SPACE",0.168044075369835,"DEVELOPED_OPEN_SPACE",0.168044075369835,"DEVELOPED_OPEN_SPACE"
"KS31",85,"Konza Prairie","nadp","KS",NA,"8/17/1982","",39.1022,-96.6092,350,6,0.030303031206131,"DEVELOPED_OPEN_SPACE",0.030303031206131,"DEVELOPED_OPEN_SPACE",0.030303031206131,"DEVELOPED_OPEN_SPACE"
"KS32",86,"Lake Scott State Park","nadp","KS",NA,"3/27/1984","",38.6717,-100.9164,863,6,1.05325984954834,"DEVELOPED_OPEN_SPACE",1.05325984954834,"DEVELOPED_OPEN_SPACE",1.05325984954834,"DEVELOPED_OPEN_SPACE"
"KY03",87,"Mackville","nadp","KY",NA,"11/29/1983","",37.7047,-85.0489,293,5,0.150596871972084,"DEVELOPED_OPEN_SPACE",0.150596871972084,"DEVELOPED_OPEN_SPACE",0.150596871972084,"DEVELOPED_OPEN_SPACE"
"KY10",88,"Mammoth Cave National Park-Houchin Meadow","nadp","KY",NA,"8/27/2002","",37.1317,-86.148,236,6,0.503213942050934,"DEVELOPED_OPEN_SPACE",0.503213942050934,"DEVELOPED_OPEN_SPACE",0.503213942050934,"DEVELOPED_OPEN_SPACE"
"KY19",89,"Seneca Park","nadp","KY",NA,"10/7/2003","",38.2322,-85.6727,177,5,7.19100093841553,"DEVELOPED_OPEN_SPACE",7.19100093841553,"DEVELOPED_OPEN_SPACE",6.98255300521851,"DEVELOPED_OPEN_SPACE"
"KY22",90,"Lilley Cornett Woods","nadp","KY",NA,"9/6/1983","",37.0778,-82.9936,335,5,0.98806244134903,"DEVELOPED_OPEN_SPACE",0.98806244134903,"DEVELOPED_OPEN_SPACE",0.98806244134903,"DEVELOPED_OPEN_SPACE"
"KY35",91,"Clark State Fish Hatchery","nadp","KY",NA,"8/30/1983","",38.1183,-83.5469,204,5,8.51239681243896,"DEVELOPED_OPEN_SPACE",8.51239681243896,"DEVELOPED_OPEN_SPACE",8.51239681243896,"DEVELOPED_OPEN_SPACE"
"KY38",297,"Land Between the Lakes","nadp","KY",NA,"10/2/1984","4/16/1996",36.7906,-88.0672,181,6,0.258953154087067,"DEVELOPED_OPEN_SPACE",0.258953154087067,"DEVELOPED_OPEN_SPACE",0.258953154087067,"DEVELOPED_OPEN_SPACE"
"KY99",92,"Mulberry Flat","nadp","KY",NA,"12/27/1994","",36.9029,-88.0121,110,6,0,"NO_DEVELOPMENT",0,"NO_DEVELOPMENT",0,"NO_DEVELOPMENT"
"LA06",298,"Hill Farm Research Station","nadp","LA",NA,"11/16/1982","1/26/1988",32.7514,-93.0506,88,6,0.635445356369019,"DEVELOPED_OPEN_SPACE",0.635445356369019,"DEVELOPED_OPEN_SPACE",0.635445356369019,"DEVELOPED_OPEN_SPACE"
"LA12",93,"Iberia Research Station","nadp","LA",NA,"11/16/1982","",29.931,-91.7165,6,6,2.70707058906555,"DEVELOPED_OPEN_SPACE",2.70707058906555,"DEVELOPED_OPEN_SPACE",2.70707058906555,"DEVELOPED_OPEN_SPACE"
"LA30",94,"Southeast Research Station","nadp","LA",NA,"1/18/1983","",30.7819,-90.2021,77,6,1.23324155807495,"DEVELOPED_OPEN_SPACE",1.23324155807495,"DEVELOPED_OPEN_SPACE",1.23324155807495,"DEVELOPED_OPEN_SPACE"
"MA01",95,"North Atlantic Coastal Lab","nadp","MA",NA,"12/15/1981","",41.9759,-70.0241,57,5,0.866850316524506,"DEVELOPED_OPEN_SPACE",0.866850316524506,"DEVELOPED_OPEN_SPACE",0.866850316524506,"DEVELOPED_OPEN_SPACE"
"MA08",96,"Quabbin Reservoir","nadp","MA",NA,"3/5/1982","",42.3925,-72.3444,306,5,0.254361808300018,"DEVELOPED_OPEN_SPACE",0.254361808300018,"DEVELOPED_OPEN_SPACE",0.254361808300018,"DEVELOPED_OPEN_SPACE"
"MA13",299,"East","nadp","MA",NA,"2/2/1982","9/28/2010",42.3845,-71.2146,190,5,27.8292007446289,"DEVELOPED_LOW_INTENSITY",27.5445365905762,"DEVELOPED_LOW_INTENSITY",24.6703395843506,"DEVELOPED_LOW_INTENSITY"
"MA14",97,"Nantucket","nadp","MA",NA,"3/4/2014","",41.2897,-70.1751,16,5,7.23324155807495,"DEVELOPED_OPEN_SPACE",7.14600563049316,"DEVELOPED_OPEN_SPACE",7.10743808746338,"DEVELOPED_OPEN_SPACE"
"MA98",369,"Arnold Arboretum","nadp","MA",NA,"02/09/2016","",42.2953,-71.134,48,5,52.7575759887695,"DEVELOPED_MEDIUM_INTENSITY",51.5059700012207,"DEVELOPED_MEDIUM_INTENSITY",50.5996322631836,"DEVELOPED_MEDIUM_INTENSITY"
"MD03",300,"White Rock Substation","nadp","MD",NA,"10/3/1984","3/4/2002",39.4089,-76.9953,172,5,0.528925597667694,"DEVELOPED_OPEN_SPACE",0.528925597667694,"DEVELOPED_OPEN_SPACE",0.528925597667694,"DEVELOPED_OPEN_SPACE"
"MD07",301,"Catoctin Mountain Park","nadp","MD",NA,"5/27/2003","6/11/2013",39.647,-77.4848,471,5,1.40128552913666,"DEVELOPED_OPEN_SPACE",1.40128552913666,"DEVELOPED_OPEN_SPACE",1.40128552913666,"DEVELOPED_OPEN_SPACE"
"MD08",98,"Piney Reservoir","nadp","MD",NA,"6/29/2004","",39.7053,-79.0122,769,5,0,"NO_DEVELOPMENT",0,"NO_DEVELOPMENT",0,"NO_DEVELOPMENT"
"MD13",99,"Wye","nadp","MD",NA,"3/8/1983","",38.9131,-76.1525,6,5,0.289256185293198,"DEVELOPED_OPEN_SPACE",0.289256185293198,"DEVELOPED_OPEN_SPACE",0.289256185293198,"DEVELOPED_OPEN_SPACE"
"MD15",100,"Smith Island","nadp","MD",NA,"6/1/2004","",37.9925,-76.0345,2,5,0.0413223132491112,"DEVELOPED_OPEN_SPACE",0.0413223132491112,"DEVELOPED_OPEN_SPACE",0.0413223132491112,"DEVELOPED_OPEN_SPACE"
"MD18",101,"Assateague Island National Seashore-Woodcock","nadp","MD",NA,"9/5/2000","",38.251,-75.1593,0,5,4.94398546218872,"DEVELOPED_OPEN_SPACE",4.90541791915894,"DEVELOPED_OPEN_SPACE",4.81359052658081,"DEVELOPED_OPEN_SPACE"
"MD99",102,"Beltsville","nadp","MD",NA,"6/1/2004","",39.028,-76.8171,46,5,0.299357205629349,"DEVELOPED_OPEN_SPACE",0.299357205629349,"DEVELOPED_OPEN_SPACE",0.299357205629349,"DEVELOPED_OPEN_SPACE"
"ME00",103,"Caribou","nadp","ME",NA,"4/14/1980","",46.8675,-68.0134,191,5,35.751148223877,"DEVELOPED_LOW_INTENSITY",34.9972457885742,"DEVELOPED_LOW_INTENSITY",33.3314971923828,"DEVELOPED_LOW_INTENSITY"
"ME02",104,"Bridgton","nadp","ME",NA,"9/30/1980","",44.1075,-70.7289,222,5,0.777777791023254,"DEVELOPED_OPEN_SPACE",0.777777791023254,"DEVELOPED_OPEN_SPACE",0.777777791023254,"DEVELOPED_OPEN_SPACE"
"ME04",105,"Carrabassett Valley","nadp","ME",NA,"3/12/2002","",45.0803,-70.2118,259,5,1.34986221790314,"DEVELOPED_OPEN_SPACE",1.34986221790314,"DEVELOPED_OPEN_SPACE",1.30670344829559,"DEVELOPED_OPEN_SPACE"
"ME08",106,"Gilead","nadp","ME",NA,"9/28/1999","",44.4003,-71.0098,212,5,0.0817263573408127,"DEVELOPED_OPEN_SPACE",0.0817263573408127,"DEVELOPED_OPEN_SPACE",0.0817263573408127,"DEVELOPED_OPEN_SPACE"
"ME09",107,"Greenville Station","nadp","ME",NA,"11/20/1979","",45.4891,-69.6647,322,5,1.15335166454315,"DEVELOPED_OPEN_SPACE",1.15335166454315,"DEVELOPED_OPEN_SPACE",1.15335166454315,"DEVELOPED_OPEN_SPACE"
"ME94",108,"Indian Township","nadp","ME",NA,"10/3/2013","",45.2436,-67.6308,101,5,0.102846644818783,"DEVELOPED_OPEN_SPACE",0.102846644818783,"DEVELOPED_OPEN_SPACE",0.102846644818783,"DEVELOPED_OPEN_SPACE"
"ME95",302,"Wolapomomqot Ciw Wocuk","nadp","ME",NA,"6/12/2002","12/12/2006",45.3406,-67.9876,182,5,0,"NO_DEVELOPMENT",0,"NO_DEVELOPMENT",0,"NO_DEVELOPMENT"
"ME96",109,"Casco Bay-Wolfe’s Neck Farm","nadp","ME",NA,"1/6/1998","",43.8325,-70.0645,15,5,1.78971529006958,"DEVELOPED_OPEN_SPACE",1.78971529006958,"DEVELOPED_OPEN_SPACE",1.78971529006958,"DEVELOPED_OPEN_SPACE"
"ME97",303,"Presque Isle","nadp","ME",NA,"6/5/1984","9/27/1988",46.6964,-68.0332,165,5,20.5436172485352,"DEVELOPED_LOW_INTENSITY",20.1735534667969,"DEVELOPED_LOW_INTENSITY",17.7144165039062,"DEVELOPED_OPEN_SPACE"
"ME98",110,"Acadia National Park-McFarland Hill","nadp","ME",NA,"11/10/1981","",44.3772,-68.2608,150,5,2.35445356369019,"DEVELOPED_OPEN_SPACE",2.35445356369019,"DEVELOPED_OPEN_SPACE",2.35445356369019,"DEVELOPED_OPEN_SPACE"
"ME99",304,"Acadia National Park-Paradise Hill","nadp","ME",NA,"11/18/1980","11/3/1981",44.4083,-68.2461,37,5,8.17630863189697,"DEVELOPED_OPEN_SPACE",7.69421482086182,"DEVELOPED_OPEN_SPACE",7.47566556930542,"DEVELOPED_OPEN_SPACE"
"MI09",111,"Douglas Lake","nadp","MI",NA,"7/3/1979","",45.5608,-84.6783,238,5,1.13223135471344,"DEVELOPED_OPEN_SPACE",1.13223135471344,"DEVELOPED_OPEN_SPACE",1.13223135471344,"DEVELOPED_OPEN_SPACE"
"MI22",305,"Houghton","nadp","MI",NA,"10/26/1980","2/15/1983",47.2269,-88.6308,193,6,1.06887054443359,"DEVELOPED_OPEN_SPACE",1.06887054443359,"DEVELOPED_OPEN_SPACE",1.06887054443359,"DEVELOPED_OPEN_SPACE"
"MI25",306,"Isle Royale National Park-Windigo","nadp","MI",NA,"8/12/1980","10/22/1984",47.9153,-89.1525,216,6,0,"NO_DEVELOPMENT",0,"NO_DEVELOPMENT",0,"NO_DEVELOPMENT"
"MI26",112,"Kellogg Biological Station","nadp","MI",NA,"6/26/1979","",42.4103,-85.3928,288,5,1.82001841068268,"DEVELOPED_OPEN_SPACE",1.82001841068268,"DEVELOPED_OPEN_SPACE",1.82001841068268,"DEVELOPED_OPEN_SPACE"
"MI29",307,"Peshawbestown","nadp","MI",NA,"1/22/2002","3/31/2009",45.0289,-85.6292,209,5,1.58861339092255,"DEVELOPED_OPEN_SPACE",1.58861339092255,"DEVELOPED_OPEN_SPACE",1.58861339092255,"DEVELOPED_OPEN_SPACE"
"MI48",113,"Seney National Wildlife Refuge-Headquarters","nadp","MI",NA,"11/28/2000","",46.2889,-85.9504,220,6,0.493112951517105,"DEVELOPED_OPEN_SPACE",0.493112951517105,"DEVELOPED_OPEN_SPACE",0.493112951517105,"DEVELOPED_OPEN_SPACE"
"MI51",114,"Unionville","nadp","MI",NA,"1/26/1999","",43.6135,-83.3599,201,5,1.62718093395233,"DEVELOPED_OPEN_SPACE",1.62718093395233,"DEVELOPED_OPEN_SPACE",1.62718093395233,"DEVELOPED_OPEN_SPACE"
"MI52",115,"Ann Arbor","nadp","MI",NA,"1/26/1999","",42.4164,-83.9019,267,5,6.01561069488525,"DEVELOPED_OPEN_SPACE",5.94674015045166,"DEVELOPED_OPEN_SPACE",5.94674015045166,"DEVELOPED_OPEN_SPACE"
"MI53",116,"Wellston","nadp","MI",NA,"10/10/1978","",44.2242,-85.8186,292,5,3.6244261264801,"DEVELOPED_OPEN_SPACE",3.6244261264801,"DEVELOPED_OPEN_SPACE",3.6244261264801,"DEVELOPED_OPEN_SPACE"
"MI97",308,"Isle Royale National Park-Wallace Lake","nadp","MI",NA,"5/22/1985","10/10/2006",48.0575,-88.6342,201,6,0,"NO_DEVELOPMENT",0,"NO_DEVELOPMENT",0,"NO_DEVELOPMENT"
"MI98",117,"Raco","nadp","MI",NA,"5/1/1984","",46.3723,-84.7434,272,5,2.16896224021912,"DEVELOPED_OPEN_SPACE",2.16896224021912,"DEVELOPED_OPEN_SPACE",2.08539938926697,"DEVELOPED_OPEN_SPACE"
"MI99",118,"Chassell","nadp","MI",NA,"2/15/1983","",47.1046,-88.5516,296,6,3.42240595817566,"DEVELOPED_OPEN_SPACE",3.17814517021179,"DEVELOPED_OPEN_SPACE",3.17814517021179,"DEVELOPED_OPEN_SPACE"
"MN01",119,"Cedar Creek","nadp","MN",NA,"12/31/1996","",45.4017,-93.2031,280,6,0.774104654788971,"DEVELOPED_OPEN_SPACE",0.774104654788971,"DEVELOPED_OPEN_SPACE",0.774104654788971,"DEVELOPED_OPEN_SPACE"
"MN05",309,"Fond du Lac","nadp","MN",NA,"11/19/1996","3/22/2005",46.7131,-92.5108,390,6,5.34986209869385,"DEVELOPED_OPEN_SPACE",5.01561069488525,"DEVELOPED_OPEN_SPACE",4.88705253601074,"DEVELOPED_OPEN_SPACE"
"MN08",120,"Hovland","nadp","MN",NA,"12/31/1996","",47.8471,-89.965,224,6,1.3259871006012,"DEVELOPED_OPEN_SPACE",1.3259871006012,"DEVELOPED_OPEN_SPACE",1.3259871006012,"DEVELOPED_OPEN_SPACE"
"MN16",121,"Marcell Experimental Forest","nadp","MN",NA,"7/6/1978","",47.5311,-93.4686,431,6,0.408631771802902,"DEVELOPED_OPEN_SPACE",0.408631771802902,"DEVELOPED_OPEN_SPACE",0.408631771802902,"DEVELOPED_OPEN_SPACE"
"MN18",122,"Fernberg","nadp","MN",NA,"11/18/1980","",47.9464,-91.4961,524,6,0.0110192839056253,"DEVELOPED_OPEN_SPACE",0.0110192839056253,"DEVELOPED_OPEN_SPACE",0.0110192839056253,"DEVELOPED_OPEN_SPACE"
"MN23",123,"Camp Ripley","nadp","MN",NA,"10/18/1983","",46.2494,-94.4972,410,6,0.317722678184509,"DEVELOPED_OPEN_SPACE",0.317722678184509,"DEVELOPED_OPEN_SPACE",0.317722678184509,"DEVELOPED_OPEN_SPACE"
"MN27",124,"Lamberton","nadp","MN",NA,"1/2/1979","",44.237,-95.3011,367,6,0.221303954720497,"DEVELOPED_OPEN_SPACE",0.221303954720497,"DEVELOPED_OPEN_SPACE",0.221303954720497,"DEVELOPED_OPEN_SPACE"
"MN28",125,"Grindstone Lake","nadp","MN",NA,"12/31/1996","",46.1217,-93.0001,350,6,0.206611573696136,"DEVELOPED_OPEN_SPACE",0.206611573696136,"DEVELOPED_OPEN_SPACE",0.206611573696136,"DEVELOPED_OPEN_SPACE"
"MN32",126,"Voyageurs National Park-Sullivan Bay","nadp","MN",NA,"5/30/2000","",48.4132,-92.8305,421,6,0,"NO_DEVELOPMENT",0,"NO_DEVELOPMENT",0,"NO_DEVELOPMENT"
"MN99",127,"Wolf Ridge","nadp","MN",NA,"12/31/1996","",47.3841,-91.2067,361,6,0,"NO_DEVELOPMENT",0,"NO_DEVELOPMENT",0,"NO_DEVELOPMENT"
"MO03",128,"Ashland Wildlife Area","nadp","MO",NA,"10/20/1981","",38.754,-92.1994,257,6,0.34251606464386,"DEVELOPED_OPEN_SPACE",0.34251606464386,"DEVELOPED_OPEN_SPACE",0.34251606464386,"DEVELOPED_OPEN_SPACE"
"MO05",129,"University Forest","nadp","MO",NA,"10/27/1981","",36.9108,-90.3187,165,6,0.0550964176654816,"DEVELOPED_OPEN_SPACE",0.0550964176654816,"DEVELOPED_OPEN_SPACE",0.0550964176654816,"DEVELOPED_OPEN_SPACE"
"MO43",310,"Tyson Research Center","nadp","MO",NA,"8/28/2001","5/7/2008",38.5185,-90.5652,174,6,0,"NO_DEVELOPMENT",0,"NO_DEVELOPMENT",0,"NO_DEVELOPMENT"
"MO50",311,"Baker Observatory","nadp","MO",NA,"10/14/1986","5/10/1988",37.3986,-93.0425,415,6,0.496786028146744,"DEVELOPED_OPEN_SPACE",0.496786028146744,"DEVELOPED_OPEN_SPACE",0.496786028146744,"DEVELOPED_OPEN_SPACE"
"MS10",130,"Clinton","nadp","MS",NA,"7/10/1984","",32.3069,-90.3186,86,6,0.732782363891602,"DEVELOPED_OPEN_SPACE",0.732782363891602,"DEVELOPED_OPEN_SPACE",0.732782363891602,"DEVELOPED_OPEN_SPACE"
"MS12",131,"Grand Bay NERR","nadp","MS",NA,"3/9/2010","",30.4294,-88.4277,2,6,0,"NO_DEVELOPMENT",0,"NO_DEVELOPMENT",0,"NO_DEVELOPMENT"
"MS14",312,"Meridian","nadp","MS",NA,"4/15/1980","1/2/1990",32.3344,-88.745,89,6,46.6923789978027,"DEVELOPED_LOW_INTENSITY",46.6060600280762,"DEVELOPED_LOW_INTENSITY",45.7630844116211,"DEVELOPED_LOW_INTENSITY"
"MS19",132,"Newton","nadp","MS",NA,"11/11/1986","",32.3269,-89.2086,134,6,1.52708911895752,"DEVELOPED_OPEN_SPACE",1.52708911895752,"DEVELOPED_OPEN_SPACE",1.52708911895752,"DEVELOPED_OPEN_SPACE"
"MS30",133,"Coffeeville","nadp","MS",NA,"7/17/1984","",34.0025,-89.7993,134,6,0.166207537055016,"DEVELOPED_OPEN_SPACE",0.166207537055016,"DEVELOPED_OPEN_SPACE",0.166207537055016,"DEVELOPED_OPEN_SPACE"
"MT00",134,"Little Bighorn Battlefield National Monument","nadp","MT",NA,"7/13/1984","",45.5701,-107.438,962,7,2.692378282547,"DEVELOPED_OPEN_SPACE",2.692378282547,"DEVELOPED_OPEN_SPACE",2.692378282547,"DEVELOPED_OPEN_SPACE"
"MT05",135,"Glacier National Park-Fire Weather Station","nadp","MT",NA,"6/3/1980","",48.5102,-113.997,964,7,3.59871435165405,"DEVELOPED_OPEN_SPACE",3.59871435165405,"DEVELOPED_OPEN_SPACE",3.59871435165405,"DEVELOPED_OPEN_SPACE"
"MT07",136,"Clancy","nadp","MT",NA,"1/24/1984","",46.485,-112.0647,1448,7,0.165289252996445,"DEVELOPED_OPEN_SPACE",0.165289252996445,"DEVELOPED_OPEN_SPACE",0.165289252996445,"DEVELOPED_OPEN_SPACE"
"MT13",313,"Give Out Morgan","nadp","MT",NA,"9/14/1982","12/15/1998",48.4886,-105.2083,806,7,0.293847560882568,"DEVELOPED_OPEN_SPACE",0.293847560882568,"DEVELOPED_OPEN_SPACE",0.293847560882568,"DEVELOPED_OPEN_SPACE"
"MT96",137,"Poplar River","nadp","MT",NA,"12/21/1999","",48.3149,-105.144,640,7,0.179981634020805,"DEVELOPED_OPEN_SPACE",0.179981634020805,"DEVELOPED_OPEN_SPACE",0.179981634020805,"DEVELOPED_OPEN_SPACE"
"MT97",138,"Lost Trail Pass","nadp","MT",NA,"9/25/1990","",45.692,-113.968,2401,7,0.0247933883219957,"DEVELOPED_OPEN_SPACE",0.0247933883219957,"DEVELOPED_OPEN_SPACE",0.0247933883219957,"DEVELOPED_OPEN_SPACE"
"MT98",139,"Havre - Northern Agricultural Research Center","nadp","MT",NA,"7/30/1985","",48.5007,-109.798,819,7,1.93204772472382,"DEVELOPED_OPEN_SPACE",1.93204772472382,"DEVELOPED_OPEN_SPACE",1.93204772472382,"DEVELOPED_OPEN_SPACE"
"MT99",314,"Glacier National Park-St Mary Ranger Station","nadp","MT",NA,"1/25/1983","11/28/1989",48.7411,-113.43,1391,7,6.67768573760986,"DEVELOPED_OPEN_SPACE",6.67768573760986,"DEVELOPED_OPEN_SPACE",6.63728189468384,"DEVELOPED_OPEN_SPACE"
"NC03",140,"Lewiston","nadp","NC",NA,"10/31/1978","",36.1325,-77.1708,22,5,1.32506883144379,"DEVELOPED_OPEN_SPACE",1.32506883144379,"DEVELOPED_OPEN_SPACE",1.23324155807495,"DEVELOPED_OPEN_SPACE"
"NC06",141,"Beaufort","nadp","NC",NA,"1/26/1999","",34.8846,-76.6207,2,5,0.476584017276764,"DEVELOPED_OPEN_SPACE",0.476584017276764,"DEVELOPED_OPEN_SPACE",0.476584017276764,"DEVELOPED_OPEN_SPACE"
"NC11",315,"Research Triangle Institute","nadp","NC",NA,"10/14/1980","1/4/1983",35.9025,-78.87,99,5,25.6510562896729,"DEVELOPED_LOW_INTENSITY",23.7777786254883,"DEVELOPED_LOW_INTENSITY",21.460054397583,"DEVELOPED_LOW_INTENSITY"
"NC25",142,"Coweeta","nadp","NC",NA,"7/5/1978","",35.0605,-83.4305,686,5,0.0615243352949619,"DEVELOPED_OPEN_SPACE",0.0615243352949619,"DEVELOPED_OPEN_SPACE",0.0615243352949619,"DEVELOPED_OPEN_SPACE"
"NC29",143,"Hofmann Forest","nadp","NC",NA,"7/2/2002","",34.825,-77.3228,14,5,0.142332419753075,"DEVELOPED_OPEN_SPACE",0.142332419753075,"DEVELOPED_OPEN_SPACE",0.142332419753075,"DEVELOPED_OPEN_SPACE"
"NC33",316,"Research Triangle Park","nadp","NC",NA,"4/15/1980","3/1/1983",35.8964,-78.8606,94,5,37.5886116027832,"DEVELOPED_LOW_INTENSITY",36.813591003418,"DEVELOPED_LOW_INTENSITY",35.5206604003906,"DEVELOPED_LOW_INTENSITY"
"NC34",144,"Piedmont Research Station","nadp","NC",NA,"10/17/1978","",35.697,-80.6225,219,5,0.838383853435516,"DEVELOPED_OPEN_SPACE",0.838383853435516,"DEVELOPED_OPEN_SPACE",0.838383853435516,"DEVELOPED_OPEN_SPACE"
"NC35",145,"Clinton Crops Research Station","nadp","NC",NA,"10/24/1978","",35.0258,-78.2783,41,5,0.612488508224487,"DEVELOPED_OPEN_SPACE",0.610651969909668,"DEVELOPED_OPEN_SPACE",0.597796142101288,"DEVELOPED_OPEN_SPACE"
"NC36",146,"Jordan Creek","nadp","NC",NA,"10/18/1983","",34.9705,-79.5281,132,5,0.582185506820679,"DEVELOPED_OPEN_SPACE",0.582185506820679,"DEVELOPED_OPEN_SPACE",0.582185506820679,"DEVELOPED_OPEN_SPACE"
"NC41",147,"Finley Farm","nadp","NC",NA,"10/3/1978","",35.7288,-78.6802,120,5,4.27640056610107,"DEVELOPED_OPEN_SPACE",4.27640056610107,"DEVELOPED_OPEN_SPACE",4.27640056610107,"DEVELOPED_OPEN_SPACE"
"NC45",148,"Mt. Mitchell","nadp","NC",NA,"11/26/1985","",35.7353,-82.2861,1987,5,0.0238751154392958,"DEVELOPED_OPEN_SPACE",0.0238751154392958,"DEVELOPED_OPEN_SPACE",0.0238751154392958,"DEVELOPED_OPEN_SPACE"
"ND00",149,"Theodore Roosevelt National Park-Painted Canyon","nadp","ND",NA,"1/30/2001","",46.8951,-103.378,863,7,3.88062453269958,"DEVELOPED_OPEN_SPACE",3.88062453269958,"DEVELOPED_OPEN_SPACE",3.88062453269958,"DEVELOPED_OPEN_SPACE"
"ND07",317,"Theodore Roosevelt National Park-North Unit Headquarters","nadp","ND",NA,"5/5/1981","12/12/2000",47.6014,-103.2642,611,6,0.772268116474152,"DEVELOPED_OPEN_SPACE",0.772268116474152,"DEVELOPED_OPEN_SPACE",0.772268116474152,"DEVELOPED_OPEN_SPACE"
"ND08",150,"Icelandic State Park","nadp","ND",NA,"10/25/1983","",48.782,-97.7546,306,6,0.212121218442917,"DEVELOPED_OPEN_SPACE",0.212121218442917,"DEVELOPED_OPEN_SPACE",0.212121218442917,"DEVELOPED_OPEN_SPACE"
"ND11",151,"Woodworth","nadp","ND",NA,"11/29/1983","",47.1247,-99.2381,578,6,0.221303954720497,"DEVELOPED_OPEN_SPACE",0.221303954720497,"DEVELOPED_OPEN_SPACE",0.221303954720497,"DEVELOPED_OPEN_SPACE"
"NE15",152,"Mead","nadp","NE",NA,"7/25/1978","",41.1528,-96.4912,352,8,0.271809011697769,"DEVELOPED_OPEN_SPACE",0.271809011697769,"DEVELOPED_OPEN_SPACE",0.271809011697769,"DEVELOPED_OPEN_SPACE"
"NE99",153,"North Platte Agricultural Experiment Station","nadp","NE",NA,"9/24/1985","",41.0592,-100.7464,919,8,0.467401295900345,"DEVELOPED_OPEN_SPACE",0.467401295900345,"DEVELOPED_OPEN_SPACE",0.467401295900345,"DEVELOPED_OPEN_SPACE"
"NH02",154,"Hubbard Brook","nadp","NH",NA,"7/25/1978","",43.9433,-71.7029,250,5,0.0165289249271154,"DEVELOPED_OPEN_SPACE",0.0165289249271154,"DEVELOPED_OPEN_SPACE",0.0165289249271154,"DEVELOPED_OPEN_SPACE"
"NJ00",155,"Edwin B. Forsythe National Wildlife Refuge","nadp","NJ",NA,"10/13/1998","",39.4728,-74.4369,2,5,0.306703388690948,"DEVELOPED_OPEN_SPACE",0.306703388690948,"DEVELOPED_OPEN_SPACE",0.306703388690948,"DEVELOPED_OPEN_SPACE"
"NJ29",318,"Princeton","nadp","NJ",NA,"8/6/1980","7/7/1981",40.3456,-74.6169,37,5,22.7079887390137,"DEVELOPED_LOW_INTENSITY",21.9017448425293,"DEVELOPED_LOW_INTENSITY",18.274564743042,"DEVELOPED_OPEN_SPACE"
"NJ39",156,"Cattus Island County Park","nadp","NJ",NA,"12/4/2012","",39.9894,-74.1344,1,5,45.1184577941895,"DEVELOPED_LOW_INTENSITY",44.8108367919922,"DEVELOPED_LOW_INTENSITY",44.1184577941895,"DEVELOPED_LOW_INTENSITY"
"NJ99",157,"Washington Crossing","nadp","NJ",NA,"8/4/1981","",40.3154,-74.8536,72,5,4.20385694503784,"DEVELOPED_OPEN_SPACE",4.1671257019043,"DEVELOPED_OPEN_SPACE",4.1671257019043,"DEVELOPED_OPEN_SPACE"
"NM01",319,"Gila Cliff Dwellings National Monument","nadp","NM",NA,"7/29/1985","9/25/2012",33.2203,-108.2347,1772,7,0.0101010100916028,"DEVELOPED_OPEN_SPACE",0.0101010100916028,"DEVELOPED_OPEN_SPACE",0.0101010100916028,"DEVELOPED_OPEN_SPACE"
"NM07",158,"Bandelier National Monument","nadp","NM",NA,"6/22/1982","",35.7788,-106.266,1997,7,1.01193749904633,"DEVELOPED_OPEN_SPACE",1.01193749904633,"DEVELOPED_OPEN_SPACE",1.01193749904633,"DEVELOPED_OPEN_SPACE"
"NM08",159,"Mayhill","nadp","NM",NA,"1/24/1984","",32.9096,-105.471,2022,7,0.469237834215164,"DEVELOPED_OPEN_SPACE",0.469237834215164,"DEVELOPED_OPEN_SPACE",0.469237834215164,"DEVELOPED_OPEN_SPACE"
"NM09",320,"Cuba","nadp","NM",NA,"2/3/1982","4/4/2000",36.0408,-106.9714,2124,7,1.65472912788391,"DEVELOPED_OPEN_SPACE",1.65472912788391,"DEVELOPED_OPEN_SPACE",1.65472912788391,"DEVELOPED_OPEN_SPACE"
"NM12",321,"Capulin Volcano National Monument","nadp","NM",NA,"11/15/1984","9/25/2012",36.779,-103.981,2190,7,0.574839293956757,"DEVELOPED_OPEN_SPACE",0.574839293956757,"DEVELOPED_OPEN_SPACE",0.574839293956757,"DEVELOPED_OPEN_SPACE"
"NV00",322,"Red Rock Canyon","nadp","NV",NA,"1/22/1985","12/10/2002",36.1358,-115.4256,1137,8,0.274563819169998,"DEVELOPED_OPEN_SPACE",0.274563819169998,"DEVELOPED_OPEN_SPACE",0.274563819169998,"DEVELOPED_OPEN_SPACE"
"NV01",323,"Saval Ranch","nadp","NV",NA,"7/18/1984","3/25/1997",41.2853,-115.8522,1872,8,1.00367307662964,"DEVELOPED_OPEN_SPACE",1.00367307662964,"DEVELOPED_OPEN_SPACE",1.00367307662964,"DEVELOPED_OPEN_SPACE"
"NV03",160,"Smith Valley","nadp","NV",NA,"8/7/1985","",38.7992,-119.2567,1501,8,0.192837461829185,"DEVELOPED_OPEN_SPACE",0.192837461829185,"DEVELOPED_OPEN_SPACE",0.192837461829185,"DEVELOPED_OPEN_SPACE"
"NV05",161,"Great Basin National Park-Lehman Caves","nadp","NV",NA,"1/15/1985","",39.0054,-114.217,2066,8,0.0404040403664112,"DEVELOPED_OPEN_SPACE",0.0404040403664112,"DEVELOPED_OPEN_SPACE",0.0404040403664112,"DEVELOPED_OPEN_SPACE"
"NY01",162,"Alfred","nadp","NY",NA,"8/17/2004","",42.2276,-77.8016,697,5,0.0697887986898422,"DEVELOPED_OPEN_SPACE",0.0697887986898422,"DEVELOPED_OPEN_SPACE",0.0697887986898422,"DEVELOPED_OPEN_SPACE"
"NY06",163,"Bronx","nadp","NY",NA,"1/22/2013","",40.868,-73.8782,68,5,31.5794315338135,"DEVELOPED_LOW_INTENSITY",30.8512401580811,"DEVELOPED_LOW_INTENSITY",29.8034896850586,"DEVELOPED_LOW_INTENSITY"
"NY08",164,"Aurora Research Farm","nadp","NY",NA,"4/17/1979","",42.7339,-76.6597,249,5,4.48760318756104,"DEVELOPED_OPEN_SPACE",3.19283747673035,"DEVELOPED_OPEN_SPACE",2.85950422286987,"DEVELOPED_OPEN_SPACE"
"NY10",165,"Chautauqua","nadp","NY",NA,"6/10/1980","",42.2994,-79.3964,488,5,0.177226811647415,"DEVELOPED_OPEN_SPACE",0.177226811647415,"DEVELOPED_OPEN_SPACE",0.177226811647415,"DEVELOPED_OPEN_SPACE"
"NY12",324,"Knobit","nadp","NY",NA,"1/2/1980","8/6/1985",42.3783,-73.5028,406,5,2.52800726890564,"DEVELOPED_OPEN_SPACE",2.52800726890564,"DEVELOPED_OPEN_SPACE",2.52800726890564,"DEVELOPED_OPEN_SPACE"
"NY20",166,"Huntington Wildlife","nadp","NY",NA,"10/31/1978","",43.9731,-74.2231,500,5,0.288337916135788,"DEVELOPED_OPEN_SPACE",0.288337916135788,"DEVELOPED_OPEN_SPACE",0.288337916135788,"DEVELOPED_OPEN_SPACE"
"NY22",167,"Akwesasne Mohawk-Fort Covington","nadp","NY",NA,"8/18/1999","",44.9226,-74.4806,70,5,0.0183654725551605,"DEVELOPED_OPEN_SPACE",0.0183654725551605,"DEVELOPED_OPEN_SPACE",0.0183654725551605,"DEVELOPED_OPEN_SPACE"
"NY28",168,"Piseco Lake","nadp","NY",NA,"12/31/2012","",43.4336,-74.5002,519,5,1.49035811424255,"DEVELOPED_OPEN_SPACE",1.49035811424255,"DEVELOPED_OPEN_SPACE",1.49035811424255,"DEVELOPED_OPEN_SPACE"
"NY29",169,"Moss Lake","nadp","NY",NA,"7/29/2003","",43.7868,-74.8429,566,5,0.000918273639399558,"DEVELOPED_OPEN_SPACE",0.000918273639399558,"DEVELOPED_OPEN_SPACE",0.000918273639399558,"DEVELOPED_OPEN_SPACE"
"NY43",170,"Rochester","nadp","NY",NA,"4/30/2013","",43.1463,-77.5481,136,5,27.8494033813477,"DEVELOPED_LOW_INTENSITY",27.4214878082275,"DEVELOPED_LOW_INTENSITY",27.0651969909668,"DEVELOPED_LOW_INTENSITY"
"NY51",325,"Stilwell Lake","nadp","NY",NA,"6/26/1979","10/2/1984",41.35,-74.0394,186,5,7.89715337753296,"DEVELOPED_OPEN_SPACE",0.951331496238708,"DEVELOPED_OPEN_SPACE",0.951331496238708,"DEVELOPED_OPEN_SPACE"
"NY52",171,"Bennett Bridge","nadp","NY",NA,"6/10/1980","",43.5282,-75.9492,247,5,0.178145080804825,"DEVELOPED_OPEN_SPACE",0.178145080804825,"DEVELOPED_OPEN_SPACE",0.178145080804825,"DEVELOPED_OPEN_SPACE"
"NY59",172,"Wanakena","nadp","NY",NA,"1/2/2013","",44.1461,-74.9025,NA,5,0.00183654727879912,"DEVELOPED_OPEN_SPACE",0.00183654727879912,"DEVELOPED_OPEN_SPACE",0.00183654727879912,"DEVELOPED_OPEN_SPACE"
"NY65",326,"Jasper","nadp","NY",NA,"2/19/1980","6/15/2004",42.1064,-77.5358,634,5,0.0927456393837929,"DEVELOPED_OPEN_SPACE",0.0927456393837929,"DEVELOPED_OPEN_SPACE",0.0927456393837929,"DEVELOPED_OPEN_SPACE"
"NY68",173,"Biscuit Brook","nadp","NY",NA,"10/11/1983","",41.9936,-74.5031,634,5,0,"NO_DEVELOPMENT",0,"NO_DEVELOPMENT",0,"NO_DEVELOPMENT"
"NY92",174,"Amherst","nadp","NY",NA,"10/29/2013","",42.9931,-78.7717,183,5,11.4058771133423,"DEVELOPED_OPEN_SPACE",11.0633611679077,"DEVELOPED_OPEN_SPACE",10.9816341400146,"DEVELOPED_OPEN_SPACE"
"NY93",175,"Paul Smiths","nadp","NY",NA,"1/1/2013","",44.434,-74.246,498,5,0.278236925601959,"DEVELOPED_OPEN_SPACE",0.278236925601959,"DEVELOPED_OPEN_SPACE",0.278236925601959,"DEVELOPED_OPEN_SPACE"
"NY96",176,"Cedar Beach-Southold","nadp","NY",NA,"11/25/2003","",41.0347,-72.3891,1,5,10.3507804870605,"DEVELOPED_OPEN_SPACE",10.2598714828491,"DEVELOPED_OPEN_SPACE",10.1359043121338,"DEVELOPED_OPEN_SPACE"
"NY98",177,"Whiteface Mountain","nadp","NY",NA,"7/3/1984","",44.3933,-73.8594,610,5,1.00091826915741,"DEVELOPED_OPEN_SPACE",1.00091826915741,"DEVELOPED_OPEN_SPACE",1.00091826915741,"DEVELOPED_OPEN_SPACE"
"NY99",178,"West Point","nadp","NY",NA,"9/13/1983","",41.3511,-74.0484,211,5,1.46189165115356,"DEVELOPED_OPEN_SPACE",1.46189165115356,"DEVELOPED_OPEN_SPACE",1.46189165115356,"DEVELOPED_OPEN_SPACE"
"OH09",179,"Oxford","nadp","OH",NA,"8/14/1984","",39.5309,-84.7238,284,5,1.17906332015991,"DEVELOPED_OPEN_SPACE",1.17906332015991,"DEVELOPED_OPEN_SPACE",1.17906332015991,"DEVELOPED_OPEN_SPACE"
"OH15",327,"Lykens","nadp","OH",NA,"1/26/1999","10/12/2010",40.5502,-82.9982,303,5,0.919191896915436,"DEVELOPED_OPEN_SPACE",0.919191896915436,"DEVELOPED_OPEN_SPACE",0.919191896915436,"DEVELOPED_OPEN_SPACE"
"OH17",180,"Delaware","nadp","OH",NA,"10/3/1978","",40.3555,-83.0661,285,5,3.70247936248779,"DEVELOPED_OPEN_SPACE",3.70247936248779,"DEVELOPED_OPEN_SPACE",3.70247936248779,"DEVELOPED_OPEN_SPACE"
"OH49",181,"Caldwell","nadp","OH",NA,"9/26/1978","",39.7928,-81.5311,276,5,1.7823691368103,"DEVELOPED_OPEN_SPACE",1.7823691368103,"DEVELOPED_OPEN_SPACE",1.7823691368103,"DEVELOPED_OPEN_SPACE"
"OH54",182,"Deer Creek State Park","nadp","OH",NA,"1/26/1999","",39.6359,-83.2606,267,5,0.168962344527245,"DEVELOPED_OPEN_SPACE",0.168962344527245,"DEVELOPED_OPEN_SPACE",0.168962344527245,"DEVELOPED_OPEN_SPACE"
"OH71",183,"Wooster","nadp","OH",NA,"9/26/1978","",40.7813,-81.9197,308,5,16.6501369476318,"DEVELOPED_OPEN_SPACE",16.5087242126465,"DEVELOPED_OPEN_SPACE",16.4325065612793,"DEVELOPED_OPEN_SPACE"
"OK00",184,"Salt Plains National Wildlife Refuge","nadp","OK",NA,"12/13/1983","",36.8053,-98.2006,345,6,1.9595959186554,"DEVELOPED_OPEN_SPACE",1.9595959186554,"DEVELOPED_OPEN_SPACE",1.9595959186554,"DEVELOPED_OPEN_SPACE"
"OK08",328,"Lake Eucha","nadp","OK",NA,"2/1/2000","1/28/2004",36.3481,-94.8239,243,6,0.63177227973938,"DEVELOPED_OPEN_SPACE",0.63177227973938,"DEVELOPED_OPEN_SPACE",0.63177227973938,"DEVELOPED_OPEN_SPACE"
"OK17",185,"Kessler Farm Field Laboratory","nadp","OK",NA,"3/29/1983","",34.98,-97.5214,331,6,0.209366396069527,"DEVELOPED_OPEN_SPACE",0.209366396069527,"DEVELOPED_OPEN_SPACE",0.209366396069527,"DEVELOPED_OPEN_SPACE"
"OK25",329,"Clayton Lake","nadp","OK",NA,"2/1/1983","8/12/1986",34.5297,-95.3531,349,6,0.462809920310974,"DEVELOPED_OPEN_SPACE",0.462809920310974,"DEVELOPED_OPEN_SPACE",0.462809920310974,"DEVELOPED_OPEN_SPACE"
"OK29",186,"Goodwell Research Station","nadp","OK",NA,"1/8/1985","",36.5908,-101.6175,999,6,14.2690544128418,"DEVELOPED_OPEN_SPACE",14.2268133163452,"DEVELOPED_OPEN_SPACE",14.2268133163452,"DEVELOPED_OPEN_SPACE"
"OK99",330,"Stilwell","nadp","OK",NA,"5/22/2007","7/28/2009",35.7508,-94.67,299,6,1.9504132270813,"DEVELOPED_OPEN_SPACE",1.88705229759216,"DEVELOPED_OPEN_SPACE",1.77961432933807,"DEVELOPED_OPEN_SPACE"
"OR02",331,"Alsea Guard Ranger Station","nadp","OR",NA,"12/27/1979","12/26/2007",44.3856,-123.6153,104,8,0.208448112010956,"DEVELOPED_OPEN_SPACE",0.208448112010956,"DEVELOPED_OPEN_SPACE",0.208448112010956,"DEVELOPED_OPEN_SPACE"
"OR08",332,"Lost Creek Dam","nadp","OR",NA,"10/21/1980","12/6/1983",42.6678,-122.6831,475,8,2.49311304092407,"DEVELOPED_OPEN_SPACE",2.49311304092407,"DEVELOPED_OPEN_SPACE",2.49311304092407,"DEVELOPED_OPEN_SPACE"
"OR09",187,"Silver Lake Ranger Station","nadp","OR",NA,"8/23/1983","",43.119,-121.059,1338,8,7.29660224914551,"DEVELOPED_OPEN_SPACE",7.29660224914551,"DEVELOPED_OPEN_SPACE",7.22130393981934,"DEVELOPED_OPEN_SPACE"
"OR10",188,"H. J. Andrews Experimental Forest","nadp","OR",NA,"5/13/1980","",44.2118,-122.256,443,8,0.0927456393837929,"DEVELOPED_OPEN_SPACE",0.0927456393837929,"DEVELOPED_OPEN_SPACE",0.0927456393837929,"DEVELOPED_OPEN_SPACE"
"OR11",333,"Vines Hill","nadp","OR",NA,"7/15/1980","3/30/1993",43.8994,-117.4269,904,7,1.08172631263733,"DEVELOPED_OPEN_SPACE",1.08172631263733,"DEVELOPED_OPEN_SPACE",1.08172631263733,"DEVELOPED_OPEN_SPACE"
"OR17",334,"Pendleton","nadp","OR",NA,"4/15/1980","6/15/1982",45.69,-118.8378,452,8,10.0238752365112,"DEVELOPED_OPEN_SPACE",9.52157974243164,"DEVELOPED_OPEN_SPACE",8.42148780822754,"DEVELOPED_OPEN_SPACE"
"OR18",189,"Starkey Experimental Forest","nadp","OR",NA,"3/6/1984","",45.2247,-118.513,1254,8,0.112947657704353,"DEVELOPED_OPEN_SPACE",0.112947657704353,"DEVELOPED_OPEN_SPACE",0.112947657704353,"DEVELOPED_OPEN_SPACE"
"OR97",190,"Hyslop Farm","nadp","OR",NA,"4/26/1983","",44.6347,-123.19,69,8,6.1983470916748,"DEVELOPED_OPEN_SPACE",6.10927438735962,"DEVELOPED_OPEN_SPACE",6.0670337677002,"DEVELOPED_OPEN_SPACE"
"OR98",335,"Bull Run","nadp","OR",NA,"7/13/1982","10/6/2003",45.4492,-122.1533,267,8,0.00826446246355772,"DEVELOPED_OPEN_SPACE",0.00826446246355772,"DEVELOPED_OPEN_SPACE",0.00826446246355772,"DEVELOPED_OPEN_SPACE"
"OR99",336,"Schmidt Farm","nadp","OR",NA,"12/26/1979","4/26/1983",44.6264,-123.2139,69,8,0.952249765396118,"DEVELOPED_OPEN_SPACE",0.952249765396118,"DEVELOPED_OPEN_SPACE",0.952249765396118,"DEVELOPED_OPEN_SPACE"
"PA00",191,"Arendtsville","nadp","PA",NA,"1/26/1999","",39.9231,-77.3078,269,5,0.758494019508362,"DEVELOPED_OPEN_SPACE",0.758494019508362,"DEVELOPED_OPEN_SPACE",0.758494019508362,"DEVELOPED_OPEN_SPACE"
"PA02",192,"Crooked Creek Lake","nadp","PA",NA,"7/27/2011","",40.7131,-79.5144,294,5,2.51882457733154,"DEVELOPED_OPEN_SPACE",2.51882457733154,"DEVELOPED_OPEN_SPACE",2.51882457733154,"DEVELOPED_OPEN_SPACE"
"PA13",193,"Allegheny Portage Railroad National Historic Site","nadp","PA",NA,"7/26/2011","",40.457,-78.56,739,5,5.07621669769287,"DEVELOPED_OPEN_SPACE",5.03948593139648,"DEVELOPED_OPEN_SPACE",4.96326923370361,"DEVELOPED_OPEN_SPACE"
"PA15",194,"Penn State","nadp","PA",NA,"6/7/1983","",40.7883,-77.9458,393,5,0.158861339092255,"DEVELOPED_OPEN_SPACE",0.158861339092255,"DEVELOPED_OPEN_SPACE",0.158861339092255,"DEVELOPED_OPEN_SPACE"
"PA18",195,"Young Womans Creek","nadp","PA",NA,"4/20/1999","",41.4142,-77.6799,272,5,0.0137741044163704,"DEVELOPED_OPEN_SPACE",0.0137741044163704,"DEVELOPED_OPEN_SPACE",0.0137741044163704,"DEVELOPED_OPEN_SPACE"
"PA21",196,"Goddard State Park","nadp","PA",NA,"7/26/2011","",41.4271,-80.1451,385,5,1.32966029644012,"DEVELOPED_OPEN_SPACE",1.32966029644012,"DEVELOPED_OPEN_SPACE",1.32966029644012,"DEVELOPED_OPEN_SPACE"
"PA29",197,"Kane Experimental Forest","nadp","PA",NA,"7/18/1978","",41.5978,-78.7675,618,5,0.0238751154392958,"DEVELOPED_OPEN_SPACE",0.0238751154392958,"DEVELOPED_OPEN_SPACE",0.0238751154392958,"DEVELOPED_OPEN_SPACE"
"PA30",198,"Erie","nadp","PA",NA,"7/27/2011","",42.1558,-80.1134,177,5,0.180899903178215,"DEVELOPED_OPEN_SPACE",0.180899903178215,"DEVELOPED_OPEN_SPACE",0.180899903178215,"DEVELOPED_OPEN_SPACE"
"PA42",199,"Leading Ridge","nadp","PA",NA,"4/25/1979","",40.6575,-77.9397,287,5,0.311294764280319,"DEVELOPED_OPEN_SPACE",0.311294764280319,"DEVELOPED_OPEN_SPACE",0.311294764280319,"DEVELOPED_OPEN_SPACE"
"PA47",200,"Millersville","nadp","PA",NA,"11/21/2002","",39.9909,-76.3856,84,5,1.78696048259735,"DEVELOPED_OPEN_SPACE",1.78696048259735,"DEVELOPED_OPEN_SPACE",1.78696048259735,"DEVELOPED_OPEN_SPACE"
"PA52",201,"Little Pine State Park","nadp","PA",NA,"7/26/2011","",41.3639,-77.3561,228,5,0.276400357484818,"DEVELOPED_OPEN_SPACE",0.276400357484818,"DEVELOPED_OPEN_SPACE",0.276400357484818,"DEVELOPED_OPEN_SPACE"
"PA60",202,"Valley Forge","nadp","PA",NA,"7/26/2011","",40.1166,-75.8833,46,5,0.268135905265808,"DEVELOPED_OPEN_SPACE",0.268135905265808,"DEVELOPED_OPEN_SPACE",0.268135905265808,"DEVELOPED_OPEN_SPACE"
"PA71",203,"Little Buffalo State Park","nadp","PA",NA,"7/26/2011","",40.4603,-77.1692,155,5,0.650137722492218,"DEVELOPED_OPEN_SPACE",0.650137722492218,"DEVELOPED_OPEN_SPACE",0.650137722492218,"DEVELOPED_OPEN_SPACE"
"PA72",204,"Milford","nadp","PA",NA,"12/27/1983","",41.3273,-74.8199,212,5,2.72910928726196,"DEVELOPED_OPEN_SPACE",2.72910928726196,"DEVELOPED_OPEN_SPACE",2.72910928726196,"DEVELOPED_OPEN_SPACE"
"PA83",205,"Laurel Hill State Park","nadp","PA",NA,"7/26/2011","",39.9869,-79.2544,594,5,0.370064288377762,"DEVELOPED_OPEN_SPACE",0.370064288377762,"DEVELOPED_OPEN_SPACE",0.370064288377762,"DEVELOPED_OPEN_SPACE"
"PA90",206,"Hills Creek State Park","nadp","PA",NA,"7/26/2011","",41.8043,-77.1903,476,5,0.739210307598114,"DEVELOPED_OPEN_SPACE",0.739210307598114,"DEVELOPED_OPEN_SPACE",0.739210307598114,"DEVELOPED_OPEN_SPACE"
"PA98",207,"Frances Slocum State Park","nadp","PA",NA,"7/26/2011","",41.3445,-75.8901,370,5,2.40863180160522,"DEVELOPED_OPEN_SPACE",2.40863180160522,"DEVELOPED_OPEN_SPACE",2.40863180160522,"DEVELOPED_OPEN_SPACE"
"PR20",208,"El Verde","nadp","PR",NA,"2/12/1985","",18.3206,-65.82,380,4,NA,NA,NA,NA,NA,NA
"SC03",209,"Savannah River","nadp","SC",NA,"12/13/2011","",33.245,-81.6505,90,5,52.0036735534668,"DEVELOPED_MEDIUM_INTENSITY",51.8530769348145,"DEVELOPED_MEDIUM_INTENSITY",51.5702476501465,"DEVELOPED_MEDIUM_INTENSITY"
"SC05",210,"Cape Romain National Wildlife Refuge","nadp","SC",NA,"11/21/2000","",32.943,-79.6592,1,5,0.203856751322746,"DEVELOPED_OPEN_SPACE",0.203856751322746,"DEVELOPED_OPEN_SPACE",0.203856751322746,"DEVELOPED_OPEN_SPACE"
"SC06",211,"Santee National Wildlife Refuge","nadp","SC",NA,"7/19/1984","",33.5394,-80.435,24,5,0.370064288377762,"DEVELOPED_OPEN_SPACE",0.370064288377762,"DEVELOPED_OPEN_SPACE",0.370064288377762,"DEVELOPED_OPEN_SPACE"
"SC07",337,"ACE Basin National Estuarine Research Reserve","nadp","SC",NA,"12/31/2001","12/25/2007",32.5993,-80.4554,1,5,0.541781425476074,"DEVELOPED_OPEN_SPACE",0.541781425476074,"DEVELOPED_OPEN_SPACE",0.541781425476074,"DEVELOPED_OPEN_SPACE"
"SC11",338,"North Inlet-Winyah Bay National Estuarine Research Reserve","nadp","SC",NA,"1/8/2002","1/8/2009",33.3497,-79.1888,0,5,0,"NO_DEVELOPMENT",0,"NO_DEVELOPMENT",0,"NO_DEVELOPMENT"
"SC18",339,"Clemson","nadp","SC",NA,"3/27/1979","6/17/1986",34.6239,-82.7342,256,5,1.87786960601807,"DEVELOPED_OPEN_SPACE",1.87786960601807,"DEVELOPED_OPEN_SPACE",1.87786960601807,"DEVELOPED_OPEN_SPACE"
"SC99",340,"Fort Johnson","nadp","SC",NA,"3/19/2002","3/20/2007",32.7508,-79.8975,2,5,1.10651969909668,"DEVELOPED_OPEN_SPACE",1.10651969909668,"DEVELOPED_OPEN_SPACE",1.10651969909668,"DEVELOPED_OPEN_SPACE"
"SD00",341,"Huron","nadp","SD",NA,"4/30/1980","9/20/1983",44.3842,-98.2206,390,6,8.74471950531006,"DEVELOPED_OPEN_SPACE",8.23599624633789,"DEVELOPED_OPEN_SPACE",7.87970638275146,"DEVELOPED_OPEN_SPACE"
"SD04",212,"Wind Cave National Park-Elk Mountain","nadp","SD",NA,"11/5/2002","",43.5577,-103.484,1292,7,2.12947654724121,"DEVELOPED_OPEN_SPACE",2.12947654724121,"DEVELOPED_OPEN_SPACE",2.12947654724121,"DEVELOPED_OPEN_SPACE"
"SD08",213,"Cottonwood","nadp","SD",NA,"10/11/1983","",43.9461,-101.8552,733,7,0.466483026742935,"DEVELOPED_OPEN_SPACE",0.466483026742935,"DEVELOPED_OPEN_SPACE",0.466483026742935,"DEVELOPED_OPEN_SPACE"
"SD99",214,"Huron Well Field","nadp","SD",NA,"11/29/1983","",44.355,-98.2917,398,6,0,"NO_DEVELOPMENT",0,"NO_DEVELOPMENT",0,"NO_DEVELOPMENT"
"SK20",215,"Cactus Lake","nadp","SK",NA,"2/14/2012","",52.0223,-109.8616,NA,7,NA,NA,NA,NA,NA,NA
"SK21",216,"Hudson Bay","nadp","SK",NA,"4/30/2012","",52.84,-102.38,NA,7,NA,NA,NA,NA,NA,NA
"SK30",370,"Weyburn","nadp","SK",NA,"06/07/2016","",49.5523,-103.8557,589,7,NA,NA,NA,NA,NA,NA
"SK31",371,"Fox Valley","nadp","SK",NA,"06/14/2016","",50.4501,-109.4502,718,7,NA,NA,NA,NA,NA,NA
"TN00",342,"Walker Branch Watershed","nadp","TN",NA,"3/11/1980","10/11/2011",35.9614,-84.2872,341,5,0.101010099053383,"DEVELOPED_OPEN_SPACE",0.101010099053383,"DEVELOPED_OPEN_SPACE",0.101010099053383,"DEVELOPED_OPEN_SPACE"
"TN04",217,"Speedwell","nadp","TN",NA,"1/26/1999","",36.4698,-83.8272,384,5,0.427915513515472,"DEVELOPED_OPEN_SPACE",0.427915513515472,"DEVELOPED_OPEN_SPACE",0.427915513515472,"DEVELOPED_OPEN_SPACE"
"TN11",218,"Great Smoky Mountains National Park-Elkmont","nadp","TN",NA,"8/12/1980","",35.6645,-83.5903,640,5,0.00367309455759823,"DEVELOPED_OPEN_SPACE",0.00367309455759823,"DEVELOPED_OPEN_SPACE",0.00367309455759823,"DEVELOPED_OPEN_SPACE"
"TN14",219,"Hatchie National Wildlife Refuge","nadp","TN",NA,"10/2/1984","",35.4688,-89.1713,117,6,0.162534430623055,"DEVELOPED_OPEN_SPACE",0.162534430623055,"DEVELOPED_OPEN_SPACE",0.162534430623055,"DEVELOPED_OPEN_SPACE"
"TN98",343,"Wilburn Chapel","nadp","TN",NA,"1/2/1990","5/7/1996",35.1825,-87.1964,302,6,0.171717166900635,"DEVELOPED_OPEN_SPACE",0.171717166900635,"DEVELOPED_OPEN_SPACE",0.171717166900635,"DEVELOPED_OPEN_SPACE"
"TN99",344,"Giles County","nadp","TN",NA,"10/2/1984","1/2/1990",35.2847,-86.9033,244,6,1.28466486930847,"DEVELOPED_OPEN_SPACE",1.28466486930847,"DEVELOPED_OPEN_SPACE",1.28466486930847,"DEVELOPED_OPEN_SPACE"
"TX02",220,"Muleshoe National Wildlife Refuge","nadp","TX",NA,"6/18/1985","",33.9557,-102.776,1144,6,0.123966939747334,"DEVELOPED_OPEN_SPACE",0.123966939747334,"DEVELOPED_OPEN_SPACE",0.123966939747334,"DEVELOPED_OPEN_SPACE"
"TX03",221,"Beeville","nadp","TX",NA,"2/7/1984","",28.4667,-97.7069,82,6,0.247015610337257,"DEVELOPED_OPEN_SPACE",0.247015610337257,"DEVELOPED_OPEN_SPACE",0.247015610337257,"DEVELOPED_OPEN_SPACE"
"TX04",222,"Big Bend National Park - K-Bar","nadp","TX",NA,"4/10/1980","",29.3025,-103.1781,1056,6,0.827364563941956,"DEVELOPED_OPEN_SPACE",0.827364563941956,"DEVELOPED_OPEN_SPACE",0.827364563941956,"DEVELOPED_OPEN_SPACE"
"TX10",223,"Attwater Prairie Chicken National Wildlife Refuge","nadp","TX",NA,"7/3/1984","",29.6614,-96.2594,54,6,0.0881542712450027,"DEVELOPED_OPEN_SPACE",0.0881542712450027,"DEVELOPED_OPEN_SPACE",0.0881542712450027,"DEVELOPED_OPEN_SPACE"
"TX16",224,"Sonora","nadp","TX",NA,"6/26/1984","",30.2613,-100.5551,696,6,0.0808080807328224,"DEVELOPED_OPEN_SPACE",0.0808080807328224,"DEVELOPED_OPEN_SPACE",0.0808080807328224,"DEVELOPED_OPEN_SPACE"
"TX18",345,"Y Experimental Ranch","nadp","TX",NA,"6/30/1992","1/2/1996",33.9242,-100.0469,489,6,0.331496775150299,"DEVELOPED_OPEN_SPACE",0.331496775150299,"DEVELOPED_OPEN_SPACE",0.331496775150299,"DEVELOPED_OPEN_SPACE"
"TX21",225,"Longview","nadp","TX",NA,"6/29/1982","",32.3786,-94.7117,103,6,11.8888893127441,"DEVELOPED_OPEN_SPACE",11.8888893127441,"DEVELOPED_OPEN_SPACE",11.8888893127441,"DEVELOPED_OPEN_SPACE"
"TX22",226,"Guadalupe Mountains National Park Frijole Ranger Station","nadp","TX",NA,"6/5/1984","",31.9069,-104.805,1705,6,0,"NO_DEVELOPMENT",0,"NO_DEVELOPMENT",0,"NO_DEVELOPMENT"
"TX38",346,"Forest Seed Center","nadp","TX",NA,"8/18/1981","7/10/2001",31.5605,-94.8608,84,6,0.180899903178215,"DEVELOPED_OPEN_SPACE",0.180899903178215,"DEVELOPED_OPEN_SPACE",0.180899903178215,"DEVELOPED_OPEN_SPACE"
"TX39",347,"Texas A&M University-Corpus Christi","nadp","TX",NA,"1/2/2002","12/26/2006",27.7125,-97.3291,5,6,26.9421482086182,"DEVELOPED_LOW_INTENSITY",20.7731857299805,"DEVELOPED_LOW_INTENSITY",18.7116622924805,"DEVELOPED_OPEN_SPACE"
"TX43",227,"Cañónceta","nadp","TX",NA,"7/24/2007","",34.88,-101.665,1057,6,0.0881542712450027,"DEVELOPED_OPEN_SPACE",0.0881542712450027,"DEVELOPED_OPEN_SPACE",0.0881542712450027,"DEVELOPED_OPEN_SPACE"
"TX51",348,"Throckmorton","nadp","TX",NA,"5/29/1984","5/19/1992",33.2733,-99.2153,425,6,0.00550964195281267,"DEVELOPED_OPEN_SPACE",0.00550964195281267,"DEVELOPED_OPEN_SPACE",0.00550964195281267,"DEVELOPED_OPEN_SPACE"
"TX53",349,"Victoria","nadp","TX",NA,"4/15/1980","9/27/1988",28.8453,-96.9203,31,6,20.1551876068115,"DEVELOPED_LOW_INTENSITY",17.4545459747314,"DEVELOPED_OPEN_SPACE",14.5821857452393,"DEVELOPED_OPEN_SPACE"
"TX56",228,"L.B.J. National Grasslands","nadp","TX",NA,"9/20/1983","",33.3917,-97.6397,312,6,0.173553720116615,"DEVELOPED_OPEN_SPACE",0.173553720116615,"DEVELOPED_OPEN_SPACE",0.173553720116615,"DEVELOPED_OPEN_SPACE"
"UT01",229,"Logan","nadp","UT",NA,"12/6/1983","",41.6661,-111.8914,1370,7,3.09825539588928,"DEVELOPED_OPEN_SPACE",3.09825539588928,"DEVELOPED_OPEN_SPACE",3.09825539588928,"DEVELOPED_OPEN_SPACE"
"UT02",350,"Cedar Mountain","nadp","UT",NA,"5/11/1981","1/17/1984",39.1711,-110.6183,2331,7,0,"NO_DEVELOPMENT",0,"NO_DEVELOPMENT",0,"NO_DEVELOPMENT"
"UT08",351,"Murphy Ridge","nadp","UT",NA,"3/25/1986","6/26/2012",41.3586,-111.048,2146,7,0.492194682359695,"DEVELOPED_OPEN_SPACE",0.492194682359695,"DEVELOPED_OPEN_SPACE",0.492194682359695,"DEVELOPED_OPEN_SPACE"
"UT09",230,"Canyonlands National Park-Island in the Sky","nadp","UT",NA,"11/11/1997","",38.4584,-109.821,1797,7,0.840220391750336,"DEVELOPED_OPEN_SPACE",0.840220391750336,"DEVELOPED_OPEN_SPACE",0.840220391750336,"DEVELOPED_OPEN_SPACE"
"UT98",231,"Green River","nadp","UT",NA,"4/25/1985","",39.0001,-110.174,1256,7,7.2176308631897,"DEVELOPED_OPEN_SPACE",7.2176308631897,"DEVELOPED_OPEN_SPACE",7.16988039016724,"DEVELOPED_OPEN_SPACE"
"UT99",232,"Bryce Canyon National Park-Repeater Hill","nadp","UT",NA,"1/29/1985","",37.6186,-112.1728,2477,7,3.79981637001038,"DEVELOPED_OPEN_SPACE",3.79981637001038,"DEVELOPED_OPEN_SPACE",3.79981637001038,"DEVELOPED_OPEN_SPACE"
"VA00",233,"Charlottesville","nadp","VA",NA,"10/2/1984","",38.0402,-78.5427,172,5,0.206611573696136,"DEVELOPED_OPEN_SPACE",0.0982552766799927,"DEVELOPED_OPEN_SPACE",0.0982552766799927,"DEVELOPED_OPEN_SPACE"
"VA10",352,"Mason Neck","nadp","VA",NA,"8/12/2003","7/14/2009",38.6294,-77.2047,6,5,0.00642791530117393,"DEVELOPED_OPEN_SPACE",0.00642791530117393,"DEVELOPED_OPEN_SPACE",0.00642791530117393,"DEVELOPED_OPEN_SPACE"
"VA13",234,"Hortons Station","nadp","VA",NA,"7/25/1978","",37.3294,-80.5579,916,5,0.297520667314529,"DEVELOPED_OPEN_SPACE",0.297520667314529,"DEVELOPED_OPEN_SPACE",0.297520667314529,"DEVELOPED_OPEN_SPACE"
"VA24",235,"Prince Edward","nadp","VA",NA,"1/26/1999","",37.1652,-78.3073,150,5,0.0192837473005056,"DEVELOPED_OPEN_SPACE",0.0192837473005056,"DEVELOPED_OPEN_SPACE",0.0192837473005056,"DEVELOPED_OPEN_SPACE"
"VA27",353,"James Madison University Farm","nadp","VA",NA,"7/9/2002","6/30/2009",38.3034,-78.8178,336,5,1.05142331123352,"DEVELOPED_OPEN_SPACE",1.05142331123352,"DEVELOPED_OPEN_SPACE",1.05142331123352,"DEVELOPED_OPEN_SPACE"
"VA28",236,"Shenandoah National Park-Big Meadows","nadp","VA",NA,"5/12/1981","",38.5231,-78.4348,1072,5,0.536271810531616,"DEVELOPED_OPEN_SPACE",0.536271810531616,"DEVELOPED_OPEN_SPACE",0.536271810531616,"DEVELOPED_OPEN_SPACE"
"VA29",354,"Whitetop Mountain","nadp","VA",NA,"9/30/1986","9/18/1990",36.6389,-81.6058,1686,5,0,"NO_DEVELOPMENT",0,"NO_DEVELOPMENT",0,"NO_DEVELOPMENT"
"VA33",355,"Loves Mill","nadp","VA",NA,"10/2/1984","7/2/1985",36.7367,-81.6869,663,5,0.204775020480156,"DEVELOPED_OPEN_SPACE",0.204775020480156,"DEVELOPED_OPEN_SPACE",0.204775020480156,"DEVELOPED_OPEN_SPACE"
"VA98",356,"Harcum","nadp","VA",NA,"8/31/2004","8/29/2011",37.5312,-76.4928,13,5,0.449954092502594,"DEVELOPED_OPEN_SPACE",0.449954092502594,"DEVELOPED_OPEN_SPACE",0.449954092502594,"DEVELOPED_OPEN_SPACE"
"VA99",237,"Natural Bridge Station","nadp","VA",NA,"7/2/2002","",37.6265,-79.5126,282,5,1.42699730396271,"DEVELOPED_OPEN_SPACE",1.42699730396271,"DEVELOPED_OPEN_SPACE",1.42699730396271,"DEVELOPED_OPEN_SPACE"
"VI01",238,"Virgin Islands National Park-Lind Point","nadp","VI",NA,"4/14/1998","",18.3362,-64.7962,56,4,NA,NA,NA,NA,NA,NA
"VT01",239,"Bennington","nadp","VT",NA,"4/28/1981","",42.8761,-73.1633,305,5,3.53719019889832,"DEVELOPED_OPEN_SPACE",3.53719019889832,"DEVELOPED_OPEN_SPACE",3.49770426750183,"DEVELOPED_OPEN_SPACE"
"VT99",240,"Underhill","nadp","VT",NA,"6/12/1984","",44.5283,-72.8684,399,5,0.72451788187027,"DEVELOPED_OPEN_SPACE",0.72451788187027,"DEVELOPED_OPEN_SPACE",0.72451788187027,"DEVELOPED_OPEN_SPACE"
"WA14",241,"Olympic National Park-Hoh Ranger Station","nadp","WA",NA,"5/20/1980","",47.8597,-123.9325,182,8,0.619834721088409,"DEVELOPED_OPEN_SPACE",0.619834721088409,"DEVELOPED_OPEN_SPACE",0.619834721088409,"DEVELOPED_OPEN_SPACE"
"WA15",357,"Sullivan Lake","nadp","WA",NA,"5/8/1984","11/24/1987",48.8433,-117.2839,796,8,0.702479362487793,"DEVELOPED_OPEN_SPACE",0.702479362487793,"DEVELOPED_OPEN_SPACE",0.702479362487793,"DEVELOPED_OPEN_SPACE"
"WA19",242,"North Cascades National Park-Marblemount Ranger Station","nadp","WA",NA,"2/7/1984","",48.5403,-121.446,124,8,1.29568409919739,"DEVELOPED_OPEN_SPACE",1.29568409919739,"DEVELOPED_OPEN_SPACE",1.29568409919739,"DEVELOPED_OPEN_SPACE"
"WA21",243,"La Grande","nadp","WA",NA,"4/24/1984","",46.8353,-122.2867,617,8,1.16620755195618,"DEVELOPED_OPEN_SPACE",1.16620755195618,"DEVELOPED_OPEN_SPACE",1.16620755195618,"DEVELOPED_OPEN_SPACE"
"WA24",244,"Palouse Conservation Farm","nadp","WA",NA,"8/20/1985","",46.7606,-117.1847,766,8,1.55555558204651,"DEVELOPED_OPEN_SPACE",1.55555558204651,"DEVELOPED_OPEN_SPACE",1.55555558204651,"DEVELOPED_OPEN_SPACE"
"WA98",245,"Columbia River Gorge","nadp","WA",NA,"5/7/2002","",45.5694,-122.21,233,8,2.4251606464386,"DEVELOPED_OPEN_SPACE",2.4251606464386,"DEVELOPED_OPEN_SPACE",2.4251606464386,"DEVELOPED_OPEN_SPACE"
"WA99",246,"Mount Rainier National Park-Tahoma Woods","nadp","WA",NA,"10/26/1999","",46.7582,-122.1243,424,8,1.85858583450317,"DEVELOPED_OPEN_SPACE",1.85858583450317,"DEVELOPED_OPEN_SPACE",1.85858583450317,"DEVELOPED_OPEN_SPACE"
"WI08",247,"Brule River","nadp","WI",NA,"4/22/2014","",46.7466,-91.6055,207,6,0,"NO_DEVELOPMENT",0,"NO_DEVELOPMENT",0,"NO_DEVELOPMENT"
"WI09",358,"Popple River","nadp","WI",NA,"12/30/1986","12/31/2013",45.7964,-88.3994,421,6,0.65656566619873,"DEVELOPED_OPEN_SPACE",0.65656566619873,"DEVELOPED_OPEN_SPACE",0.65656566619873,"DEVELOPED_OPEN_SPACE"
"WI10",248,"Potawatomi","nadp","WI",NA,"6/7/2005","",45.5648,-88.8083,570,6,0.0202020201832056,"DEVELOPED_OPEN_SPACE",0.0202020201832056,"DEVELOPED_OPEN_SPACE",0.0202020201832056,"DEVELOPED_OPEN_SPACE"
"WI25",359,"Suring","nadp","WI",NA,"1/23/1985","12/31/2013",45.052,-88.3726,262,6,0.547291100025177,"DEVELOPED_OPEN_SPACE",0.547291100025177,"DEVELOPED_OPEN_SPACE",0.547291100025177,"DEVELOPED_OPEN_SPACE"
"WI28",360,"Lake Dubay","nadp","WI",NA,"6/29/1982","12/31/2013",44.7073,-89.7716,385,6,0.350780546665192,"DEVELOPED_OPEN_SPACE",0.350780546665192,"DEVELOPED_OPEN_SPACE",0.350780546665192,"DEVELOPED_OPEN_SPACE"
"WI31",249,"Devils Lake","nadp","WI",NA,"1/7/2014","",43.4352,-89.6801,389,6,0.000918273639399558,"DEVELOPED_OPEN_SPACE",0.000918273639399558,"DEVELOPED_OPEN_SPACE",0.000918273639399558,"DEVELOPED_OPEN_SPACE"
"WI32",361,"Middle Village","nadp","WI",NA,"1/22/2002","3/28/2006",44.9308,-88.755,319,6,1.42791557312012,"DEVELOPED_OPEN_SPACE",1.42791557312012,"DEVELOPED_OPEN_SPACE",1.42791557312012,"DEVELOPED_OPEN_SPACE"
"WI35",250,"Perkinstown","nadp","WI",NA,"1/26/1999","",45.2064,-90.5978,472,6,0.646464645862579,"DEVELOPED_OPEN_SPACE",0.646464645862579,"DEVELOPED_OPEN_SPACE",0.646464645862579,"DEVELOPED_OPEN_SPACE"
"WI36",251,"Trout Lake","nadp","WI",NA,"1/22/1980","",46.0512,-89.6541,509,6,0.243342518806458,"DEVELOPED_OPEN_SPACE",0.243342518806458,"DEVELOPED_OPEN_SPACE",0.243342518806458,"DEVELOPED_OPEN_SPACE"
"WI37",252,"Spooner","nadp","WI",NA,"6/3/1980","",45.8228,-91.8744,331,6,0.170798897743225,"DEVELOPED_OPEN_SPACE",0.170798897743225,"DEVELOPED_OPEN_SPACE",0.170798897743225,"DEVELOPED_OPEN_SPACE"
"WI97",363,"Lac Courte Oreilles Reservation","nadp","WI",NA,"11/27/2001","3/22/2005",45.9944,-91.3711,418,6,1.41505968570709,"DEVELOPED_OPEN_SPACE",1.41505968570709,"DEVELOPED_OPEN_SPACE",1.41505968570709,"DEVELOPED_OPEN_SPACE"
"WI98",364,"Wildcat Mountain","nadp","WI",NA,"8/1/1989","12/31/2013",43.7023,-90.5685,386,6,0.454545468091965,"DEVELOPED_OPEN_SPACE",0.454545468091965,"DEVELOPED_OPEN_SPACE",0.454545468091965,"DEVELOPED_OPEN_SPACE"
"WI99",365,"Lake Geneva","nadp","WI",NA,"6/5/1984","12/31/2013",42.5792,-88.5006,288,6,5.48852157592773,"DEVELOPED_OPEN_SPACE",5.32782363891602,"DEVELOPED_OPEN_SPACE",4.88613414764404,"DEVELOPED_OPEN_SPACE"
"WV04",253,"Babcock State Park","nadp","WV",NA,"9/6/1983","",37.9796,-80.9525,753,5,0.428833782672882,"DEVELOPED_OPEN_SPACE",0.428833782672882,"DEVELOPED_OPEN_SPACE",0.428833782672882,"DEVELOPED_OPEN_SPACE"
"WV05",254,"Cedar Creek State Park","nadp","WV",NA,"1/26/1999","",38.8794,-80.8476,210,5,0.553718984127045,"DEVELOPED_OPEN_SPACE",0.553718984127045,"DEVELOPED_OPEN_SPACE",0.553718984127045,"DEVELOPED_OPEN_SPACE"
"WV18",255,"Parsons","nadp","WV",NA,"7/5/1978","",39.0897,-79.6622,505,5,5.45730018615723,"DEVELOPED_OPEN_SPACE",5.45730018615723,"DEVELOPED_OPEN_SPACE",5.45730018615723,"DEVELOPED_OPEN_SPACE"
"WY00",256,"Snowy Range","nadp","WY",NA,"4/22/1986","",41.3762,-106.26,3269,7,0.0119375577196479,"DEVELOPED_OPEN_SPACE",0.0119375577196479,"DEVELOPED_OPEN_SPACE",0.0119375577196479,"DEVELOPED_OPEN_SPACE"
"WY02",257,"Sinks Canyon","nadp","WY",NA,"8/21/1984","",42.7336,-108.8498,2164,7,0.00367309455759823,"DEVELOPED_OPEN_SPACE",0.00367309455759823,"DEVELOPED_OPEN_SPACE",0.00367309455759823,"DEVELOPED_OPEN_SPACE"
"WY06",258,"Pinedale","nadp","WY",NA,"1/26/1982","",42.929,-109.7875,2388,7,0.107438012957573,"DEVELOPED_OPEN_SPACE",0.107438012957573,"DEVELOPED_OPEN_SPACE",0.107438012957573,"DEVELOPED_OPEN_SPACE"
"WY08",259,"Yellowstone National Park-Tower Falls","nadp","WY",NA,"6/5/1980","",44.9166,-110.4203,1912,7,0.00550964195281267,"DEVELOPED_OPEN_SPACE",0.00550964195281267,"DEVELOPED_OPEN_SPACE",0.00550964195281267,"DEVELOPED_OPEN_SPACE"
"WY94",260,"Grand Tetons National Park","nadp","WY",NA,"9/27/2011","",43.8333,-110.7008,NA,7,0,"NO_DEVELOPMENT",0,"NO_DEVELOPMENT",0,"NO_DEVELOPMENT"
"WY95",261,"Brooklyn Lake","nadp","WY",NA,"9/22/1992","",41.3647,-106.2408,3181,7,1.04407715797424,"DEVELOPED_OPEN_SPACE",1.04407715797424,"DEVELOPED_OPEN_SPACE",1.04407715797424,"DEVELOPED_OPEN_SPACE"
"WY96",366,"Nash Fork","nadp","WY",NA,"11/18/1986","9/17/1992",41.3403,-106.1908,2856,7,1.12304866313934,"DEVELOPED_OPEN_SPACE",1.12304866313934,"DEVELOPED_OPEN_SPACE",1.12304866313934,"DEVELOPED_OPEN_SPACE"
"WY97",262,"South Pass City","nadp","WY",NA,"4/30/1985","",42.4944,-108.832,2524,7,0.508723616600037,"DEVELOPED_OPEN_SPACE",0.508723616600037,"DEVELOPED_OPEN_SPACE",0.508723616600037,"DEVELOPED_OPEN_SPACE"
"WY98",263,"Gypsum Creek","nadp","WY",NA,"12/26/1984","",43.2227,-109.9917,2428,7,0.0587695129215717,"DEVELOPED_OPEN_SPACE",0.0587695129215717,"DEVELOPED_OPEN_SPACE",0.0587695129215717,"DEVELOPED_OPEN_SPACE"
"WY99",264,"Newcastle","nadp","WY",NA,"8/11/1981","",43.873,-104.1917,1466,7,1.42148756980896,"DEVELOPED_OPEN_SPACE",1.42148756980896,"DEVELOPED_OPEN_SPACE",1.42148756980896,"DEVELOPED_OPEN_SPACE"
"CAN5",365,"Frelighsburg","nadp","QB",NA,"10/02/2001","",45.041,-72.8581,195,5,NA,NA,NA,NA,NA,NA
"KS97",366,"Kickapoo Tribe - Powhattan","nadp","KS",NA,"10/13/2015","",39.7603,-95.6358,367,6,0,"NO_DEVELOPMENT",0,"NO_DEVELOPMENT",0,"NO_DEVELOPMENT"
"MA22",367,"Boston University","nadp","MA",NA,"06/16/2015","",42.3501,-71.1044,32,5,57.0440788269043,"DEVELOPED_MEDIUM_INTENSITY",56.0284652709961,"DEVELOPED_MEDIUM_INTENSITY",54.0257110595703,"DEVELOPED_MEDIUM_INTENSITY"
"NC17",368,"University Research Farm","nadp","NC",NA,"01/30/2015","",36.0672,-79.7344,238,5,27.6391181945801,"DEVELOPED_LOW_INTENSITY",27.3076210021973,"DEVELOPED_LOW_INTENSITY",23.0918273925781,"DEVELOPED_LOW_INTENSITY"
"NY94",369,"Nicks Lake","nadp","NY",NA,"11/03/2015    ","",43.6833,-74.9833,525,5,0,"NO_DEVELOPMENT",0,"NO_DEVELOPMENT",0,"NO_DEVELOPMENT"
